{
"type": "FeatureCollection",
"crs": { "type": "name", "properties": { "name": "urn:ogc:def:crs:OGC:1.3:CRS84" } },
                                                                                
"features": [
{ "type": "Feature", "properties": { "permit_num": "B 15-122927-ADD", "permit_type": "Building Permit", "per_status": "Inspected", "per_subtype": "Commercial", "work_desc": "Addition", "permit_dt": null, "est_val": 210000, "state_val": 210000, "CONTRACTOR": "CURTIN AND SONS CONSTRUCTION LLC", "LOCATION": "1504 WHITE BEAR AVE N\rSaint Paul, MN\r(44.98665, -93.025221)", "Lon": -93.025221, "Lat": 44.986650, "COUNT": 1 }, "geometry": { "type": "Point", "coordinates": [ -93.025221, 44.98665 ] } },
{ "type": "Feature", "properties": { "permit_num": "B 15-139792-ADD", "permit_type": "Building Permit", "per_status": "Inspected", "per_subtype": "Single Family Dwelling", "work_desc": "Addition", "permit_dt": null, "est_val": 20000, "state_val": 20000, "CONTRACTOR": "Susan M Hommes", "LOCATION": "2065 4TH ST E\rSaint Paul, MN\r(44.958544, -93.013216)", "Lon": -93.013216, "Lat": 44.958544, "COUNT": 1 }, "geometry": { "type": "Point", "coordinates": [ -93.013216, 44.958544 ] } },
{ "type": "Feature", "properties": { "permit_num": "B 15-125946-ADD", "permit_type": "Building Permit", "per_status": "Inspected", "per_subtype": "Institutional", "work_desc": "Addition", "permit_dt": null, "est_val": 1682000, "state_val": 1682000, "CONTRACTOR": "TIM MCFARLAND MCFARLAND CONSTRUCTION CO", "LOCATION": "209 PAGE ST W - Baker Rec Center\rSaint Paul, MN\r(44.943633, -93.103784)", "Lon": -93.103784, "Lat": 44.943633, "COUNT": 1 }, "geometry": { "type": "Point", "coordinates": [ -93.103784, 44.943633 ] } },
{ "type": "Feature", "properties": { "permit_num": "B 15-133703-ADD", "permit_type": "Building Permit", "per_status": "Inspected", "per_subtype": "Single Family Dwelling", "work_desc": "Addition", "permit_dt": null, "est_val": 180000, "state_val": 180000, "CONTRACTOR": "DRIFTWOOD BUILDERS INC", "LOCATION": "1289 HILLCREST AVE\rSaint Paul, MN\r(44.916998, -93.154803)", "Lon": -93.154803, "Lat": 44.916998, "COUNT": 1 }, "geometry": { "type": "Point", "coordinates": [ -93.154803, 44.916998 ] } },
{ "type": "Feature", "properties": { "permit_num": "B 15-149427-ADD", "permit_type": "Building Permit", "per_status": "Inspected", "per_subtype": "Single Family Dwelling", "work_desc": "Addition", "permit_dt": null, "est_val": 105000, "state_val": 105000, "CONTRACTOR": "MAK BUILDERS INC", "LOCATION": "849 KENNETH ST\rSaint Paul, MN\r(44.915665, -93.184341)", "Lon": -93.184341, "Lat": 44.915665, "COUNT": 1 }, "geometry": { "type": "Point", "coordinates": [ -93.184341, 44.915665 ] } },
{ "type": "Feature", "properties": { "permit_num": "B 15-144683-ADD", "permit_type": "Building Permit", "per_status": "Inspected", "per_subtype": "Single Family Dwelling", "work_desc": "Addition", "permit_dt": null, "est_val": 5500, "state_val": 5500, "CONTRACTOR": "FRAMEWORX CONSTRUCTION COMPANY", "LOCATION": "996 IGLEHART AVE\rSaint Paul, MN\r(44.949423, -93.142359)", "Lon": -93.142359, "Lat": 44.949423, "COUNT": 1 }, "geometry": { "type": "Point", "coordinates": [ -93.142359, 44.949423 ] } },
{ "type": "Feature", "properties": { "permit_num": "B 15-027758-ADD", "permit_type": "Building Permit", "per_status": "Inspected", "per_subtype": "Commercial", "work_desc": "Addition", "permit_dt": null, "est_val": 2000000, "state_val": 2000000, "CONTRACTOR": "MARCY CONSTRUCTION", "LOCATION": "701 BARGE CHANNEL ROAD\rSaint Paul, MN\r(44.922329, -93.059852)", "Lon": -93.059852, "Lat": 44.922329, "COUNT": 1 }, "geometry": { "type": "Point", "coordinates": [ -93.059852, 44.922329 ] } },
{ "type": "Feature", "properties": { "permit_num": "B 15-129598-ADD", "permit_type": "Building Permit", "per_status": "Inspected", "per_subtype": "Institutional", "work_desc": "Addition", "permit_dt": null, "est_val": 38000, "state_val": 38000, "CONTRACTOR": "Minnesota Conference Assoc Of Seventh Day", "LOCATION": "1935 PRINCETON AVE\rSaint Paul, MN\r(44.93609, -93.181987)", "Lon": -93.181987, "Lat": 44.936090, "COUNT": 1 }, "geometry": { "type": "Point", "coordinates": [ -93.181987, 44.93609 ] } },
{ "type": "Feature", "properties": { "permit_num": "B 15-135365-ADD", "permit_type": "Building Permit", "per_status": "Inspected", "per_subtype": "Single Family Dwelling", "work_desc": "Addition", "permit_dt": null, "est_val": 90000, "state_val": 90000, "CONTRACTOR": "Craig Peterson Custom Renovations LLC", "LOCATION": "966 ASHLAND AVE\rSaint Paul, MN\r(44.943925, -93.140974)", "Lon": -93.140974, "Lat": 44.943925, "COUNT": 1 }, "geometry": { "type": "Point", "coordinates": [ -93.140974, 44.943925 ] } },
{ "type": "Feature", "properties": { "permit_num": "B 15-145654-ADD", "permit_type": "Building Permit", "per_status": "Inspected", "per_subtype": "Single Family Dwelling", "work_desc": "Addition", "permit_dt": null, "est_val": 20200, "state_val": 20200, "CONTRACTOR": "PRICES CONSTRUCTION & REMODELING LLC", "LOCATION": "1462 MIDWAY PKWY\rSaint Paul, MN\r(44.980761, -93.162081)", "Lon": -93.162081, "Lat": 44.980761, "COUNT": 1 }, "geometry": { "type": "Point", "coordinates": [ -93.162081, 44.980761 ] } },
{ "type": "Feature", "properties": { "permit_num": "B 15-136308-ADD", "permit_type": "Building Permit", "per_status": "Inspected", "per_subtype": "Single Family Dwelling", "work_desc": "Addition", "permit_dt": null, "est_val": 4250, "state_val": 11700, "CONTRACTOR": "Matthew N Wassenaar", "LOCATION": "232 WINIFRED ST W\rSaint Paul, MN\r(44.931384, -93.095277)", "Lon": -93.095277, "Lat": 44.931384, "COUNT": 1 }, "geometry": { "type": "Point", "coordinates": [ -93.095277, 44.931384 ] } },
{ "type": "Feature", "properties": { "permit_num": "B 15-133172-ADD", "permit_type": "Building Permit", "per_status": "Inspected", "per_subtype": "Single Family Dwelling", "work_desc": "Addition", "permit_dt": null, "est_val": 40000, "state_val": 40000, "CONTRACTOR": "Wayne R Barnard", "LOCATION": "1544 SNELLING AVE N\rSaint Paul, MN\r(44.987611, -93.16693)", "Lon": -93.166930, "Lat": 44.987611, "COUNT": 1 }, "geometry": { "type": "Point", "coordinates": [ -93.16693, 44.987611 ] } },
{ "type": "Feature", "properties": { "permit_num": "B 15-037808-ADD", "permit_type": "Building Permit", "per_status": "Inspected", "per_subtype": "Commercial", "work_desc": "Addition", "permit_dt": null, "est_val": 795000, "state_val": 795000, "CONTRACTOR": "MOEN MANAGEMENT LLC", "LOCATION": "2400 WYCLIFF ST\rSaint Paul, MN\r(44.970928, -93.195487)", "Lon": -93.195487, "Lat": 44.970928, "COUNT": 1 }, "geometry": { "type": "Point", "coordinates": [ -93.195487, 44.970928 ] } },
{ "type": "Feature", "properties": { "permit_num": "B 15-132362-ADD", "permit_type": "Building Permit", "per_status": "Inspected", "per_subtype": "Single Family Dwelling", "work_desc": "Addition", "permit_dt": null, "est_val": 3200, "state_val": 3200, "CONTRACTOR": "Curtis Favors Favors Homes, LLC", "LOCATION": "895 ST ANTHONY AVE\rSaint Paul, MN\r(44.952142, -93.13789)", "Lon": -93.137890, "Lat": 44.952142, "COUNT": 1 }, "geometry": { "type": "Point", "coordinates": [ -93.13789, 44.952142 ] } },
{ "type": "Feature", "properties": { "permit_num": "B 15-139858-ADD", "permit_type": "Building Permit", "per_status": "Inspected", "per_subtype": "Single Family Dwelling", "work_desc": "Addition", "permit_dt": null, "est_val": 25000, "state_val": 25000, "CONTRACTOR": "John M Pecchia", "LOCATION": "958 COMO AVE\rSaint Paul, MN\r(44.97488, -93.140637)", "Lon": -93.140637, "Lat": 44.974880, "COUNT": 1 }, "geometry": { "type": "Point", "coordinates": [ -93.140637, 44.97488 ] } },
{ "type": "Feature", "properties": { "permit_num": "B 15-130933-ADD", "permit_type": "Building Permit", "per_status": "Inspected", "per_subtype": "Single Family Dwelling", "work_desc": "Addition", "permit_dt": null, "est_val": 6900, "state_val": 6900, "CONTRACTOR": "TERRA FIRMA BUILDING AND REMODELING COPERATIVE", "LOCATION": "2211 KNAPP ST\rSaint Paul, MN\r(44.978506, -93.19363)", "Lon": -93.193630, "Lat": 44.978506, "COUNT": 1 }, "geometry": { "type": "Point", "coordinates": [ -93.19363, 44.978506 ] } },
{ "type": "Feature", "properties": { "permit_num": "B 15-136558-ADD", "permit_type": "Building Permit", "per_status": "Inspected", "per_subtype": "Single Family Dwelling", "work_desc": "Addition", "permit_dt": null, "est_val": 15000, "state_val": 15000, "CONTRACTOR": "CHAD D JOHNSON CONSTRUCTION", "LOCATION": "1141 LAUREL AVE\rSaint Paul, MN\r(44.945013, -93.148298)", "Lon": -93.148298, "Lat": 44.945013, "COUNT": 1 }, "geometry": { "type": "Point", "coordinates": [ -93.148298, 44.945013 ] } },
{ "type": "Feature", "properties": { "permit_num": "B 15-137396-ADD", "permit_type": "Building Permit", "per_status": "Active\/Issued", "per_subtype": "Single Family Dwelling", "work_desc": "Addition", "permit_dt": null, "est_val": 4000, "state_val": 4000, "CONTRACTOR": "LORRAINE HAMBLIN", "LOCATION": "1727 FIELD AVE\rSaint Paul, MN\r(44.902553, -93.173537)", "Lon": -93.173537, "Lat": 44.902553, "COUNT": 1 }, "geometry": { "type": "Point", "coordinates": [ -93.173537, 44.902553 ] } },
{ "type": "Feature", "properties": { "permit_num": "B 15-037778-ADD", "permit_type": "Building Permit", "per_status": "Inspected", "per_subtype": "Institutional", "work_desc": "Addition", "permit_dt": null, "est_val": 1651749, "state_val": 1651749, "CONTRACTOR": "MARK EIDSVOOG ROCHON CORPORATION", "LOCATION": "1800 AMES AVE - ACADEMIA CESAR CHAVEZ\rSaint Paul, MN\r(44.972119, -93.024007)", "Lon": -93.024007, "Lat": 44.972119, "COUNT": 1 }, "geometry": { "type": "Point", "coordinates": [ -93.024007, 44.972119 ] } },
{ "type": "Feature", "properties": { "permit_num": "B 15-130491-ADD", "permit_type": "Building Permit", "per_status": "Inspected", "per_subtype": "Single Family Dwelling", "work_desc": "Addition", "permit_dt": null, "est_val": 75000, "state_val": 75000, "CONTRACTOR": "CNS CONSTRUCTION SERVICES LLC", "LOCATION": "1297 BOHLAND PLACE\rSaint Paul, MN\r(44.916093, -93.155062)", "Lon": -93.155062, "Lat": 44.916093, "COUNT": 1 }, "geometry": { "type": "Point", "coordinates": [ -93.155062, 44.916093 ] } },
{ "type": "Feature", "properties": { "permit_num": "B 15-136125-ADD", "permit_type": "Building Permit", "per_status": "Inspected", "per_subtype": "2-Family\/Duplex", "work_desc": "Addition", "permit_dt": null, "est_val": 3700, "state_val": 3700, "CONTRACTOR": "James Joseph Esparza", "LOCATION": "340 MORTON ST E\rSaint Paul, MN\r(44.925765, -93.071276)", "Lon": -93.071276, "Lat": 44.925765, "COUNT": 1 }, "geometry": { "type": "Point", "coordinates": [ -93.071276, 44.925765 ] } },
{ "type": "Feature", "properties": { "permit_num": "B 15-133316-ADD", "permit_type": "Building Permit", "per_status": "Inspected", "per_subtype": "Institutional", "work_desc": "Addition", "permit_dt": null, "est_val": 1798937, "state_val": 1798937, "CONTRACTOR": "MARK EIDSVOOG ROCHON CORPORATION", "LOCATION": "1800 AMES AVE - ACADEMIA CESAR CHAVEZ\rSaint Paul, MN\r(44.972119, -93.024007)", "Lon": -93.024007, "Lat": 44.972119, "COUNT": 1 }, "geometry": { "type": "Point", "coordinates": [ -93.024007, 44.972119 ] } },
{ "type": "Feature", "properties": { "permit_num": "B 15-128744-ADD", "permit_type": "Building Permit", "per_status": "Inspected", "per_subtype": "Single Family Dwelling", "work_desc": "Addition", "permit_dt": null, "est_val": 15000, "state_val": 15000, "CONTRACTOR": "Joseph C Bergquist", "LOCATION": "746 CURFEW ST\rSaint Paul, MN\r(44.96353, -93.205206)", "Lon": -93.205206, "Lat": 44.963530, "COUNT": 1 }, "geometry": { "type": "Point", "coordinates": [ -93.205206, 44.96353 ] } },
{ "type": "Feature", "properties": { "permit_num": "B 15-134800-ADD", "permit_type": "Building Permit", "per_status": "Inspected", "per_subtype": "Accessory Structure", "work_desc": "Addition", "permit_dt": null, "est_val": 11000, "state_val": 11000, "CONTRACTOR": "KATIE BLISS ADAM BLISS", "LOCATION": "1524 ELEANOR AVE\rSaint Paul, MN\r(44.920644, -93.164582)", "Lon": -93.164582, "Lat": 44.920644, "COUNT": 1 }, "geometry": { "type": "Point", "coordinates": [ -93.164582, 44.920644 ] } },
{ "type": "Feature", "properties": { "permit_num": "B 15-125730-ADD", "permit_type": "Building Permit", "per_status": "Inspected", "per_subtype": "Single Family Dwelling", "work_desc": "Addition", "permit_dt": null, "est_val": 15000, "state_val": 15000, "CONTRACTOR": "Benjamin Miller Reisman", "LOCATION": "832 OSCEOLA AVE\rSaint Paul, MN\r(44.935696, -93.135142)", "Lon": -93.135142, "Lat": 44.935696, "COUNT": 1 }, "geometry": { "type": "Point", "coordinates": [ -93.135142, 44.935696 ] } },
{ "type": "Feature", "properties": { "permit_num": "B 15-017064-ADD", "permit_type": "Building Permit", "per_status": "Inspected", "per_subtype": "Single Family Dwelling", "work_desc": "Addition", "permit_dt": null, "est_val": 9280, "state_val": 9280, "CONTRACTOR": "D & D CONTRACTORS INC", "LOCATION": "1341 REANEY AVE\rSaint Paul, MN\r(44.964023, -93.043965)", "Lon": -93.043965, "Lat": 44.964023, "COUNT": 1 }, "geometry": { "type": "Point", "coordinates": [ -93.043965, 44.964023 ] } },
{ "type": "Feature", "properties": { "permit_num": "B 15-032788-ADD", "permit_type": "Building Permit", "per_status": "Inspected", "per_subtype": "Single Family Dwelling", "work_desc": "Addition", "permit_dt": null, "est_val": 20000, "state_val": 20000, "CONTRACTOR": "Erin Kastl", "LOCATION": "1726 BURNS AVE\rSaint Paul, MN\r(44.948718, -93.027386)", "Lon": -93.027386, "Lat": 44.948718, "COUNT": 1 }, "geometry": { "type": "Point", "coordinates": [ -93.027386, 44.948718 ] } },
{ "type": "Feature", "properties": { "permit_num": "B 15-021353-ADD", "permit_type": "Building Permit", "per_status": "Inspected", "per_subtype": "Institutional", "work_desc": "Addition", "permit_dt": null, "est_val": 950000, "state_val": 950000, "CONTRACTOR": "RJ Ryan Construction", "LOCATION": "800 SNELLING AVE S - CHARLES M SCHULTZ ICE ARENA\rSaint Paul, MN\r(44.917032, -93.167038)", "Lon": -93.167038, "Lat": 44.917032, "COUNT": 1 }, "geometry": { "type": "Point", "coordinates": [ -93.167038, 44.917032 ] } },
{ "type": "Feature", "properties": { "permit_num": "B 15-031072-ADD", "permit_type": "Building Permit", "per_status": "Inspected", "per_subtype": "Single Family Dwelling", "work_desc": "Addition", "permit_dt": null, "est_val": 33767, "state_val": 33767, "CONTRACTOR": "Erik Helgen", "LOCATION": "760 NEBRASKA AVE W\rSaint Paul, MN\r(44.986428, -93.132205)", "Lon": -93.132205, "Lat": 44.986428, "COUNT": 1 }, "geometry": { "type": "Point", "coordinates": [ -93.132205, 44.986428 ] } },
{ "type": "Feature", "properties": { "permit_num": "B 15-036024-ADD", "permit_type": "Building Permit", "per_status": "Inspected", "per_subtype": "Single Family Dwelling", "work_desc": "Addition", "permit_dt": null, "est_val": 180000, "state_val": 180000, "CONTRACTOR": "WHITE CRANE CONSTRUCTION LLC", "LOCATION": "960 IOWA AVE W\rSaint Paul, MN\r(44.989195, -93.140711)", "Lon": -93.140711, "Lat": 44.989195, "COUNT": 1 }, "geometry": { "type": "Point", "coordinates": [ -93.140711, 44.989195 ] } },
{ "type": "Feature", "properties": { "permit_num": "B 15-126834-ADD", "permit_type": "Building Permit", "per_status": "Inspected", "per_subtype": "Single Family Dwelling", "work_desc": "Addition", "permit_dt": null, "est_val": 4000, "state_val": 4000, "CONTRACTOR": "Kristin L Brogdon", "LOCATION": "1079 COLETTE PLACE\rSaint Paul, MN\r(44.908767, -93.183328)", "Lon": -93.183328, "Lat": 44.908767, "COUNT": 1 }, "geometry": { "type": "Point", "coordinates": [ -93.183328, 44.908767 ] } },
{ "type": "Feature", "properties": { "permit_num": "B 15-033607-ADD", "permit_type": "Building Permit", "per_status": "Inspected", "per_subtype": "Single Family Dwelling", "work_desc": "Addition", "permit_dt": null, "est_val": 26520, "state_val": 26520, "CONTRACTOR": "BRAD NILLES NILLES BUILDERS INC", "LOCATION": "1812 PRINCETON AVE\rSaint Paul, MN\r(44.936173, -93.176803)", "Lon": -93.176803, "Lat": 44.936173, "COUNT": 1 }, "geometry": { "type": "Point", "coordinates": [ -93.176803, 44.936173 ] } },
{ "type": "Feature", "properties": { "permit_num": "B 15-032249-ADD", "permit_type": "Building Permit", "per_status": "Inspected", "per_subtype": "Single Family Dwelling", "work_desc": "Addition", "permit_dt": null, "est_val": 30000, "state_val": 30000, "CONTRACTOR": "David Rasmussen", "LOCATION": "1861 COTTAGE AVE E\rSaint Paul, MN\r(44.982923, -93.021697)", "Lon": -93.021697, "Lat": 44.982923, "COUNT": 1 }, "geometry": { "type": "Point", "coordinates": [ -93.021697, 44.982923 ] } },
{ "type": "Feature", "properties": { "permit_num": "B 15-034813-ADD", "permit_type": "Building Permit", "per_status": "Inspected", "per_subtype": "Single Family Dwelling", "work_desc": "Addition", "permit_dt": null, "est_val": 86000, "state_val": 86000, "CONTRACTOR": "TAYLOR DESIGN LLC", "LOCATION": "1395 ASBURY ST\rSaint Paul, MN\r(44.983306, -93.16566)", "Lon": -93.165660, "Lat": 44.983306, "COUNT": 1 }, "geometry": { "type": "Point", "coordinates": [ -93.16566, 44.983306 ] } },
{ "type": "Feature", "properties": { "permit_num": "B 15-035756-ADD", "permit_type": "Building Permit", "per_status": "Inspected", "per_subtype": "Single Family Dwelling", "work_desc": "Addition", "permit_dt": null, "est_val": 92000, "state_val": 92000, "CONTRACTOR": "PAQUETTE CONSTRUCTION CO", "LOCATION": "1717 WELLESLEY AVE\rSaint Paul, MN\r(44.931541, -93.172815)", "Lon": -93.172815, "Lat": 44.931541, "COUNT": 1 }, "geometry": { "type": "Point", "coordinates": [ -93.172815, 44.931541 ] } },
{ "type": "Feature", "properties": { "permit_num": "B 15-031425-ADD", "permit_type": "Building Permit", "per_status": "Inspected", "per_subtype": "Single Family Dwelling", "work_desc": "Addition", "permit_dt": null, "est_val": 53000, "state_val": 53000, "CONTRACTOR": "VAN TYN RENOVATION AND DESIGN", "LOCATION": "1067 LINWOOD AVE\rSaint Paul, MN\r(44.93517, -93.14516)", "Lon": -93.145160, "Lat": 44.935170, "COUNT": 1 }, "geometry": { "type": "Point", "coordinates": [ -93.14516, 44.93517 ] } },
{ "type": "Feature", "properties": { "permit_num": "B 15-125804-ADD", "permit_type": "Building Permit", "per_status": "Inspected", "per_subtype": "Single Family Dwelling", "work_desc": "Addition", "permit_dt": null, "est_val": 30000, "state_val": 30000, "CONTRACTOR": "LANDSHAPES INC", "LOCATION": "1215 ELEANOR AVE\rSaint Paul, MN\r(44.920653, -93.151429)", "Lon": -93.151429, "Lat": 44.920653, "COUNT": 1 }, "geometry": { "type": "Point", "coordinates": [ -93.151429, 44.920653 ] } },
{ "type": "Feature", "properties": { "permit_num": "B 14-346918-ADD", "permit_type": "Building Permit", "per_status": "Inspected", "per_subtype": "Institutional", "work_desc": "Addition", "permit_dt": null, "est_val": 9046000, "state_val": 9046000, "CONTRACTOR": "Doug Longfellow MCGOUGH CONSTRUCTION CO INC", "LOCATION": "530 LAFOND AVE - St. Agnes School\rSaint Paul, MN\r(44.956655, -93.122539)", "Lon": -93.122539, "Lat": 44.956655, "COUNT": 1 }, "geometry": { "type": "Point", "coordinates": [ -93.122539, 44.956655 ] } },
{ "type": "Feature", "properties": { "permit_num": "B 15-129719-ADD", "permit_type": "Building Permit", "per_status": "Inspected", "per_subtype": "Single Family Dwelling", "work_desc": "Addition", "permit_dt": null, "est_val": 2536, "state_val": 2536, "CONTRACTOR": "Julie A Zabel", "LOCATION": "1649 WILSON AVE\rSaint Paul, MN\r(44.954065, -93.030807)", "Lon": -93.030807, "Lat": 44.954065, "COUNT": 1 }, "geometry": { "type": "Point", "coordinates": [ -93.030807, 44.954065 ] } },
{ "type": "Feature", "properties": { "permit_num": "B 15-009512-ADD", "permit_type": "Building Permit", "per_status": "Active\/Issued", "per_subtype": "Accessory Structure", "work_desc": "Addition", "permit_dt": null, "est_val": 8000, "state_val": 8000, "CONTRACTOR": "ULTIMATE EVENTS", "LOCATION": "211 7TH ST W - COSSETTA'S RESTAURANT\rSaint Paul, MN\r(44.943566, -93.103869)", "Lon": -93.103869, "Lat": 44.943566, "COUNT": 1 }, "geometry": { "type": "Point", "coordinates": [ -93.103869, 44.943566 ] } },
{ "type": "Feature", "properties": { "permit_num": "B 15-013988-ADD", "permit_type": "Building Permit", "per_status": "Inspected", "per_subtype": "Institutional", "work_desc": "Addition", "permit_dt": null, "est_val": 2820593, "state_val": 2820593, "CONTRACTOR": "DAN KRAUSE \/ CHET SACHSENMAIER SHEEHY CONSTRUCTION", "LOCATION": "781 PALACE AVE\rSaint Paul, MN\r(44.929149, -93.132409)", "Lon": -93.132409, "Lat": 44.929149, "COUNT": 1 }, "geometry": { "type": "Point", "coordinates": [ -93.132409, 44.929149 ] } },
{ "type": "Feature", "properties": { "permit_num": "B 14-324057-ADD", "permit_type": "Building Permit", "per_status": "Inspected", "per_subtype": "Single Family Dwelling", "work_desc": "Addition", "permit_dt": null, "est_val": 1394, "state_val": 1394, "CONTRACTOR": "ALL ENERGY SOLAR INC", "LOCATION": "1206 VAN BUREN AVE\rSaint Paul, MN\r(44.962066, -93.15106)", "Lon": -93.151060, "Lat": 44.962066, "COUNT": 1 }, "geometry": { "type": "Point", "coordinates": [ -93.15106, 44.962066 ] } },
{ "type": "Feature", "properties": { "permit_num": "B 15-019012-ADD", "permit_type": "Building Permit", "per_status": "Inspected", "per_subtype": "Single Family Dwelling", "work_desc": "Addition", "permit_dt": null, "est_val": 12000, "state_val": 12000, "CONTRACTOR": "WAGNER & LANG CONSTRUCTION INC", "LOCATION": "1 CROCUS HILL\rSaint Paul, MN\r(44.938031, -93.123167)", "Lon": -93.123167, "Lat": 44.938031, "COUNT": 1 }, "geometry": { "type": "Point", "coordinates": [ -93.123167, 44.938031 ] } },
{ "type": "Feature", "properties": { "permit_num": "B 15-034386-ADD", "permit_type": "Building Permit", "per_status": "Inspected", "per_subtype": "Accessory Structure", "work_desc": "Addition", "permit_dt": null, "est_val": 5000, "state_val": 5000, "CONTRACTOR": "Gerald F Wolf", "LOCATION": "1846 PALACE AVE\rSaint Paul, MN\r(44.928829, -93.178363)", "Lon": -93.178363, "Lat": 44.928829, "COUNT": 1 }, "geometry": { "type": "Point", "coordinates": [ -93.178363, 44.928829 ] } },
{ "type": "Feature", "properties": { "permit_num": "B 15-033133-ADD", "permit_type": "Building Permit", "per_status": "Inspected", "per_subtype": "Accessory Structure", "work_desc": "Addition", "permit_dt": null, "est_val": 18000, "state_val": 18000, "CONTRACTOR": "WAGNER CONSTRUCTION AND DESIGN LLC", "LOCATION": "1986 LOWER ST DENNIS ROAD\rSaint Paul, MN\r(44.908197, -93.162377)", "Lon": -93.162377, "Lat": 44.908197, "COUNT": 1 }, "geometry": { "type": "Point", "coordinates": [ -93.162377, 44.908197 ] } },
{ "type": "Feature", "properties": { "permit_num": "B 15-024474-ADD", "permit_type": "Building Permit", "per_status": "Inspected", "per_subtype": "Single Family Dwelling", "work_desc": "Addition", "permit_dt": null, "est_val": 22000, "state_val": 22000, "CONTRACTOR": "NEW DESIGN PROPERTIES LLC", "LOCATION": "2239 FREMONT AVE\rSaint Paul, MN\r(44.957615, -93.006225)", "Lon": -93.006225, "Lat": 44.957615, "COUNT": 1 }, "geometry": { "type": "Point", "coordinates": [ -93.006225, 44.957615 ] } },
{ "type": "Feature", "properties": { "permit_num": "B 15-029996-ADD", "permit_type": "Building Permit", "per_status": "Active\/Issued", "per_subtype": "Single Family Dwelling", "work_desc": "Addition", "permit_dt": null, "est_val": 1206, "state_val": 1206, "CONTRACTOR": "Joyce Marie Peter", "LOCATION": "1172 WHITE BEAR AVE N\rSaint Paul, MN\r(44.976757, -93.025293)", "Lon": -93.025293, "Lat": 44.976757, "COUNT": 1 }, "geometry": { "type": "Point", "coordinates": [ -93.025293, 44.976757 ] } },
{ "type": "Feature", "properties": { "permit_num": "B 14-317092-ADD", "permit_type": "Building Permit", "per_status": "Active\/Issued", "per_subtype": "Single Family Dwelling", "work_desc": "Addition", "permit_dt": null, "est_val": 8000, "state_val": 8000, "CONTRACTOR": "John C Howard", "LOCATION": "895 JOHNSON PKWY\rSaint Paul, MN\r(44.968361, -93.044999)", "Lon": -93.044999, "Lat": 44.968361, "COUNT": 1 }, "geometry": { "type": "Point", "coordinates": [ -93.044999, 44.968361 ] } },
{ "type": "Feature", "properties": { "permit_num": "B 15-019120-ADD", "permit_type": "Building Permit", "per_status": "Inspected", "per_subtype": "Single Family Dwelling", "work_desc": "Addition", "permit_dt": null, "est_val": 720, "state_val": 720, "CONTRACTOR": "Douglas P Wise", "LOCATION": "889 ST ANTHONY AVE\rSaint Paul, MN\r(44.952142, -93.137735)", "Lon": -93.137735, "Lat": 44.952142, "COUNT": 1 }, "geometry": { "type": "Point", "coordinates": [ -93.137735, 44.952142 ] } },
{ "type": "Feature", "properties": { "permit_num": "B 14-355201-ADD", "permit_type": "Building Permit", "per_status": "Active\/Issued", "per_subtype": "Commercial", "work_desc": "Addition", "permit_dt": null, "est_val": 25000, "state_val": 25000, "CONTRACTOR": "J BROWN HOMES INC", "LOCATION": "199 KELLOGG BLVD W - XCEL ENERGY CENTER\rSaint Paul, MN\r(44.943889, -93.101209)", "Lon": -93.101209, "Lat": 44.943889, "COUNT": 1 }, "geometry": { "type": "Point", "coordinates": [ -93.101209, 44.943889 ] } },
{ "type": "Feature", "properties": { "permit_num": "B 14-352245-ADD", "permit_type": "Building Permit", "per_status": "Inspected", "per_subtype": "Single Family Dwelling", "work_desc": "Addition", "permit_dt": null, "est_val": 45000, "state_val": 45000, "CONTRACTOR": "Mark Daniel Wahlberg Trustee", "LOCATION": "495 GLENDALE ST\rSaint Paul, MN\r(44.956093, -93.19886)", "Lon": -93.198860, "Lat": 44.956093, "COUNT": 1 }, "geometry": { "type": "Point", "coordinates": [ -93.19886, 44.956093 ] } },
{ "type": "Feature", "properties": { "permit_num": "B 15-178721-ADD", "permit_type": "Building Permit", "per_status": "Inspected", "per_subtype": "2-Family\/Duplex", "work_desc": "Addition", "permit_dt": null, "est_val": 4000, "state_val": 4000, "CONTRACTOR": "MOUA CONSTRUCTION LLC", "LOCATION": "642 SHERBURNE AVE\rSaint Paul, MN\r(44.956624, -93.127332)", "Lon": -93.127332, "Lat": 44.956624, "COUNT": 1 }, "geometry": { "type": "Point", "coordinates": [ -93.127332, 44.956624 ] } },
{ "type": "Feature", "properties": { "permit_num": "B 15-173987-ADD", "permit_type": "Building Permit", "per_status": "Inspected", "per_subtype": "Single Family Dwelling", "work_desc": "Addition", "permit_dt": null, "est_val": 45000, "state_val": 45000, "CONTRACTOR": "BUCK BROTHERS CONSTRUCTION CO INC", "LOCATION": "1511 SARGENT AVE\rSaint Paul, MN\r(44.935174, -93.164119)", "Lon": -93.164119, "Lat": 44.935174, "COUNT": 1 }, "geometry": { "type": "Point", "coordinates": [ -93.164119, 44.935174 ] } },
{ "type": "Feature", "properties": { "permit_num": "B 15-174106-ADD", "permit_type": "Building Permit", "per_status": "Inspected", "per_subtype": "Single Family Dwelling", "work_desc": "Addition", "permit_dt": null, "est_val": 15000, "state_val": 15000, "CONTRACTOR": "ST CLAIR RESTORATION AND REMODELING LLC", "LOCATION": "1785 UPPER AFTON ROAD\rSaint Paul, MN\r(44.943559, -93.024442)", "Lon": -93.024442, "Lat": 44.943559, "COUNT": 1 }, "geometry": { "type": "Point", "coordinates": [ -93.024442, 44.943559 ] } },
{ "type": "Feature", "properties": { "permit_num": "B 15-162999-ADD", "permit_type": "Building Permit", "per_status": "Inspected", "per_subtype": "Single Family Dwelling", "work_desc": "Addition", "permit_dt": null, "est_val": 240000, "state_val": 240000, "CONTRACTOR": "Laurel Gamm", "LOCATION": "151 GOODRICH AVE\rSaint Paul, MN\r(44.937811, -93.106865)", "Lon": -93.106865, "Lat": 44.937811, "COUNT": 1 }, "geometry": { "type": "Point", "coordinates": [ -93.106865, 44.937811 ] } },
{ "type": "Feature", "properties": { "permit_num": "B 15-170175-ADD", "permit_type": "Building Permit", "per_status": "Inspected", "per_subtype": "Single Family Dwelling", "work_desc": "Addition", "permit_dt": null, "est_val": 45000, "state_val": 45000, "CONTRACTOR": "CCRC", "LOCATION": "637 KENT ST\rSaint Paul, MN\r(44.960577, -93.123816)", "Lon": -93.123816, "Lat": 44.960577, "COUNT": 1 }, "geometry": { "type": "Point", "coordinates": [ -93.123816, 44.960577 ] } },
{ "type": "Feature", "properties": { "permit_num": "B 15-126439-ADD", "permit_type": "Building Permit", "per_status": "Inspected", "per_subtype": "Single Family Dwelling", "work_desc": "Addition", "permit_dt": null, "est_val": 100000, "state_val": 100000, "CONTRACTOR": "ALPINE DESIGNERS BUILDERS INC", "LOCATION": "1126 ST CLAIR AVE\rSaint Paul, MN\r(44.934168, -93.147762)", "Lon": -93.147762, "Lat": 44.934168, "COUNT": 1 }, "geometry": { "type": "Point", "coordinates": [ -93.147762, 44.934168 ] } },
{ "type": "Feature", "properties": { "permit_num": "B 15-167393-ADD", "permit_type": "Building Permit", "per_status": "Inspected", "per_subtype": "Single Family Dwelling", "work_desc": "Addition", "permit_dt": null, "est_val": 18000, "state_val": 18000, "CONTRACTOR": "Donna M Swanson", "LOCATION": "1176 GOODRICH AVE\rSaint Paul, MN\r(44.937846, -93.149922)", "Lon": -93.149922, "Lat": 44.937846, "COUNT": 1 }, "geometry": { "type": "Point", "coordinates": [ -93.149922, 44.937846 ] } },
{ "type": "Feature", "properties": { "permit_num": "B 15-171598-ADD", "permit_type": "Building Permit", "per_status": "Inspected", "per_subtype": "Single Family Dwelling", "work_desc": "Addition", "permit_dt": null, "est_val": 15000, "state_val": 15000, "CONTRACTOR": "TDL CONSTRUCTION INC", "LOCATION": "1346 3RD ST E\rSaint Paul, MN\r(44.956771, -93.043769)", "Lon": -93.043769, "Lat": 44.956771, "COUNT": 1 }, "geometry": { "type": "Point", "coordinates": [ -93.043769, 44.956771 ] } },
{ "type": "Feature", "properties": { "permit_num": "B 15-169121-ADD", "permit_type": "Building Permit", "per_status": "Inspected", "per_subtype": "2-Family\/Duplex", "work_desc": "Addition", "permit_dt": null, "est_val": 12000, "state_val": 12000, "CONTRACTOR": "Robert A Lancaster", "LOCATION": "1845 CARROLL AVE\rSaint Paul, MN\r(44.950499, -93.17831)", "Lon": -93.178310, "Lat": 44.950499, "COUNT": 1 }, "geometry": { "type": "Point", "coordinates": [ -93.17831, 44.950499 ] } },
{ "type": "Feature", "properties": { "permit_num": "B 15-154788-ADD", "permit_type": "Building Permit", "per_status": "Inspected", "per_subtype": "Single Family Dwelling", "work_desc": "Addition", "permit_dt": null, "est_val": 18000, "state_val": 18000, "CONTRACTOR": "Nachman Goldberg", "LOCATION": "1809 YORKSHIRE AVE\rSaint Paul, MN\r(44.911488, -93.176404)", "Lon": -93.176404, "Lat": 44.911488, "COUNT": 1 }, "geometry": { "type": "Point", "coordinates": [ -93.176404, 44.911488 ] } },
{ "type": "Feature", "properties": { "permit_num": "B 15-139412-ADD", "permit_type": "Building Permit", "per_status": "Inspected", "per_subtype": "Single Family Dwelling", "work_desc": "Addition", "permit_dt": null, "est_val": 550000, "state_val": 550000, "CONTRACTOR": "DOVETAIL RENOVATION INC", "LOCATION": "1133 ASHLAND AVE\rSaint Paul, MN\r(44.943976, -93.148042)", "Lon": -93.148042, "Lat": 44.943976, "COUNT": 1 }, "geometry": { "type": "Point", "coordinates": [ -93.148042, 44.943976 ] } },
{ "type": "Feature", "properties": { "permit_num": "B 15-146258-ADD", "permit_type": "Building Permit", "per_status": "Inspected", "per_subtype": "Single Family Dwelling", "work_desc": "Addition", "permit_dt": null, "est_val": 15800, "state_val": 15800, "CONTRACTOR": "SNAP CONSTRUCTION INC", "LOCATION": "740 HAZEL ST N\rSaint Paul, MN\r(44.963676, -93.020259)", "Lon": -93.020259, "Lat": 44.963676, "COUNT": 1 }, "geometry": { "type": "Point", "coordinates": [ -93.020259, 44.963676 ] } },
{ "type": "Feature", "properties": { "permit_num": "B 15-129191-ADD", "permit_type": "Building Permit", "per_status": "Inspected", "per_subtype": "Single Family Dwelling", "work_desc": "Addition", "permit_dt": null, "est_val": 8000, "state_val": 8000, "CONTRACTOR": "Tong Vang", "LOCATION": "1311 FREMONT AVE\rSaint Paul, MN\r(44.957692, -93.044992)", "Lon": -93.044992, "Lat": 44.957692, "COUNT": 1 }, "geometry": { "type": "Point", "coordinates": [ -93.044992, 44.957692 ] } },
{ "type": "Feature", "properties": { "permit_num": "B 15-123645-ADD", "permit_type": "Building Permit", "per_status": "Inspected", "per_subtype": "Accessory Structure", "work_desc": "Addition", "permit_dt": null, "est_val": 50000, "state_val": 50000, "CONTRACTOR": "Northern Iron Of St Paul Llc", "LOCATION": "867 FOREST ST - Northern Iron of Saint Paul\rSaint Paul, MN\r(44.96714, -93.060871)", "Lon": -93.060871, "Lat": 44.967140, "COUNT": 1 }, "geometry": { "type": "Point", "coordinates": [ -93.060871, 44.96714 ] } },
{ "type": "Feature", "properties": { "permit_num": "B 15-130973-ADD", "permit_type": "Building Permit", "per_status": "Inspected", "per_subtype": "Single Family Dwelling", "work_desc": "Addition", "permit_dt": null, "est_val": 46000, "state_val": 46000, "CONTRACTOR": "I-SITE DEVELOPMENT LLC", "LOCATION": "1335 PINEHURST AVE\rSaint Paul, MN\r(44.918828, -93.156631)", "Lon": -93.156631, "Lat": 44.918828, "COUNT": 1 }, "geometry": { "type": "Point", "coordinates": [ -93.156631, 44.918828 ] } },
{ "type": "Feature", "properties": { "permit_num": "B 15-034824-ADD", "permit_type": "Building Permit", "per_status": "Inspected", "per_subtype": "Single Family Dwelling", "work_desc": "Addition", "permit_dt": null, "est_val": 62750, "state_val": 62750, "CONTRACTOR": "REED OKERSTROM NORTH STAR REMODELING LLC", "LOCATION": "1345 OSCEOLA AVE\rSaint Paul, MN\r(44.936059, -93.157162)", "Lon": -93.157162, "Lat": 44.936059, "COUNT": 1 }, "geometry": { "type": "Point", "coordinates": [ -93.157162, 44.936059 ] } },
{ "type": "Feature", "properties": { "permit_num": "B 15-035803-ADD", "permit_type": "Building Permit", "per_status": "Inspected", "per_subtype": "Single Family Dwelling", "work_desc": "Addition", "permit_dt": null, "est_val": 21000, "state_val": 21000, "CONTRACTOR": "PAUL BROHAUGH CARPENTRY", "LOCATION": "1753 HUBBARD AVE\rSaint Paul, MN\r(44.965236, -93.174315)", "Lon": -93.174315, "Lat": 44.965236, "COUNT": 1 }, "geometry": { "type": "Point", "coordinates": [ -93.174315, 44.965236 ] } },
{ "type": "Feature", "properties": { "permit_num": "B 15-033590-ADD", "permit_type": "Building Permit", "per_status": "Inspected", "per_subtype": "Single Family Dwelling", "work_desc": "Addition", "permit_dt": null, "est_val": 30000, "state_val": 30000, "CONTRACTOR": "SUNRISE DESIGN & CONSTRUCTION LLC", "LOCATION": "923 LINWOOD AVE\rSaint Paul, MN\r(44.934911, -93.139152)", "Lon": -93.139152, "Lat": 44.934911, "COUNT": 1 }, "geometry": { "type": "Point", "coordinates": [ -93.139152, 44.934911 ] } },
{ "type": "Feature", "properties": { "permit_num": "B 15-024797-ADD", "permit_type": "Building Permit", "per_status": "Active\/Issued", "per_subtype": "Single Family Dwelling", "work_desc": "Addition", "permit_dt": null, "est_val": 185000, "state_val": 185000, "CONTRACTOR": "CROIX COMPANIES LLC", "LOCATION": "2109 JUNO AVE\rSaint Paul, MN\r(44.926138, -93.189417)", "Lon": -93.189417, "Lat": 44.926138, "COUNT": 1 }, "geometry": { "type": "Point", "coordinates": [ -93.189417, 44.926138 ] } },
{ "type": "Feature", "properties": { "permit_num": "B 15-019302-ADD", "permit_type": "Building Permit", "per_status": "Inspected", "per_subtype": "Commercial", "work_desc": "Addition", "permit_dt": null, "est_val": 100000, "state_val": 100000, "CONTRACTOR": "BILL O'ROURKE THIN AIR CONSTRUCTION INC", "LOCATION": "425 MINNEHAHA AVE W\rSaint Paul, MN\r(44.962961, -93.118065)", "Lon": -93.118065, "Lat": 44.962961, "COUNT": 1 }, "geometry": { "type": "Point", "coordinates": [ -93.118065, 44.962961 ] } },
{ "type": "Feature", "properties": { "permit_num": "B 15-028033-ADD", "permit_type": "Building Permit", "per_status": "Inspected", "per_subtype": "Single Family Dwelling", "work_desc": "Addition", "permit_dt": null, "est_val": 22000, "state_val": 22000, "CONTRACTOR": "Joseph G Grau", "LOCATION": "1295 EDMUND AVE\rSaint Paul, MN\r(44.958416, -93.154921)", "Lon": -93.154921, "Lat": 44.958416, "COUNT": 1 }, "geometry": { "type": "Point", "coordinates": [ -93.154921, 44.958416 ] } },
{ "type": "Feature", "properties": { "permit_num": "B 15-034351-ADD", "permit_type": "Building Permit", "per_status": "Active\/Issued", "per_subtype": "Single Family Dwelling", "work_desc": "Addition", "permit_dt": null, "est_val": 4000, "state_val": 4000, "CONTRACTOR": "Dayton J Daberkow", "LOCATION": "565 ST CLAIR AVE\rSaint Paul, MN\r(44.934106, -93.123441)", "Lon": -93.123441, "Lat": 44.934106, "COUNT": 1 }, "geometry": { "type": "Point", "coordinates": [ -93.123441, 44.934106 ] } },
{ "type": "Feature", "properties": { "permit_num": "B 15-025875-ADD", "permit_type": "Building Permit", "per_status": "Inspected", "per_subtype": "Single Family Dwelling", "work_desc": "Addition", "permit_dt": null, "est_val": 9000, "state_val": 9000, "CONTRACTOR": "THOMPSON CONSTRUCTION LLC", "LOCATION": "1258 EDMUND AVE\rSaint Paul, MN\r(44.958436, -93.153318)", "Lon": -93.153318, "Lat": 44.958436, "COUNT": 1 }, "geometry": { "type": "Point", "coordinates": [ -93.153318, 44.958436 ] } },
{ "type": "Feature", "properties": { "permit_num": "B 15-013939-ADD", "permit_type": "Building Permit", "per_status": "Active\/Issued", "per_subtype": "Single Family Dwelling", "work_desc": "Addition", "permit_dt": null, "est_val": 80000, "state_val": 80000, "CONTRACTOR": "David Olson", "LOCATION": "2013 PRINCETON AVE\rSaint Paul, MN\r(44.936143, -93.185405)", "Lon": -93.185405, "Lat": 44.936143, "COUNT": 1 }, "geometry": { "type": "Point", "coordinates": [ -93.185405, 44.936143 ] } },
{ "type": "Feature", "properties": { "permit_num": "B 14-314616-ADD", "permit_type": "Building Permit", "per_status": "Active\/Issued", "per_subtype": "Commercial", "work_desc": "Addition", "permit_dt": null, "est_val": 75000, "state_val": 75000, "CONTRACTOR": "DESIGN ONE", "LOCATION": "2610 UNIVERSITY AVE W\rSaint Paul, MN\r(44.966977, -93.205379)", "Lon": -93.205379, "Lat": 44.966977, "COUNT": 1 }, "geometry": { "type": "Point", "coordinates": [ -93.205379, 44.966977 ] } },
{ "type": "Feature", "properties": { "permit_num": "B 15-022159-ADD", "permit_type": "Building Permit", "per_status": "Inspected", "per_subtype": "Single Family Dwelling", "work_desc": "Addition", "permit_dt": null, "est_val": 3600, "state_val": 3600, "CONTRACTOR": "Chu Yuan Zhou", "LOCATION": "861 MARYLAND AVE E\rSaint Paul, MN\r(44.97753, -93.064226)", "Lon": -93.064226, "Lat": 44.977530, "COUNT": 1 }, "geometry": { "type": "Point", "coordinates": [ -93.064226, 44.97753 ] } },
{ "type": "Feature", "properties": { "permit_num": "B 15-020191-ADD", "permit_type": "Building Permit", "per_status": "Inspected", "per_subtype": "Single Family Dwelling", "work_desc": "Addition", "permit_dt": null, "est_val": 14000, "state_val": 14000, "CONTRACTOR": "AMKAT CONSTRUCTION LLC", "LOCATION": "2168 CARROLL AVE\rSaint Paul, MN\r(44.950848, -93.19185)", "Lon": -93.191850, "Lat": 44.950848, "COUNT": 1 }, "geometry": { "type": "Point", "coordinates": [ -93.19185, 44.950848 ] } },
{ "type": "Feature", "properties": { "permit_num": "B 14-344619-ADD", "permit_type": "Building Permit", "per_status": "Active\/Issued", "per_subtype": "Single Family Dwelling", "work_desc": "Addition", "permit_dt": null, "est_val": 15000, "state_val": 15000, "CONTRACTOR": "Merick B Reed", "LOCATION": "1139 CHATSWORTH ST N\rSaint Paul, MN\r(44.975527, -93.141542)", "Lon": -93.141542, "Lat": 44.975527, "COUNT": 1 }, "geometry": { "type": "Point", "coordinates": [ -93.141542, 44.975527 ] } },
{ "type": "Feature", "properties": { "permit_num": "B 15-009798-ADD", "permit_type": "Building Permit", "per_status": "Inspected", "per_subtype": "Single Family Dwelling", "work_desc": "Addition", "permit_dt": null, "est_val": 115000, "state_val": 115000, "CONTRACTOR": "CASTLE BUILDING REMODELING INC", "LOCATION": "1342 SIMPSON ST\rSaint Paul, MN\r(44.981801, -93.163124)", "Lon": -93.163124, "Lat": 44.981801, "COUNT": 1 }, "geometry": { "type": "Point", "coordinates": [ -93.163124, 44.981801 ] } },
{ "type": "Feature", "properties": { "permit_num": "B 15-004321-ADD", "permit_type": "Building Permit", "per_status": "Inspected", "per_subtype": "Single Family Dwelling", "work_desc": "Addition", "permit_dt": null, "est_val": 150000, "state_val": 150000, "CONTRACTOR": "TILSENBILT HOMES LLC", "LOCATION": "1961 JAMES AVE\rSaint Paul, MN\r(44.927958, -93.183355)", "Lon": -93.183355, "Lat": 44.927958, "COUNT": 1 }, "geometry": { "type": "Point", "coordinates": [ -93.183355, 44.927958 ] } },
{ "type": "Feature", "properties": { "permit_num": "B 14-353818-ADD", "permit_type": "Building Permit", "per_status": "Inspected", "per_subtype": "Single Family Dwelling", "work_desc": "Addition", "permit_dt": null, "est_val": 105000, "state_val": 105000, "CONTRACTOR": "BRANDT FONTAINE CONTRACTING LLC", "LOCATION": "1625 BOHLAND AVE\rSaint Paul, MN\r(44.916136, -93.168974)", "Lon": -93.168974, "Lat": 44.916136, "COUNT": 1 }, "geometry": { "type": "Point", "coordinates": [ -93.168974, 44.916136 ] } },
{ "type": "Feature", "properties": { "permit_num": "B 16-058547-ADD", "permit_type": "Building Permit", "per_status": "Inspected", "per_subtype": "Single Family Dwelling", "work_desc": "Addition", "permit_dt": null, "est_val": 6500, "state_val": 6500, "CONTRACTOR": "BISON CONSTRUCTION", "LOCATION": "1795 GOODRICH AVE\rSaint Paul, MN\r(44.937702, -93.176156)", "Lon": -93.176156, "Lat": 44.937702, "COUNT": 1 }, "geometry": { "type": "Point", "coordinates": [ -93.176156, 44.937702 ] } },
{ "type": "Feature", "properties": { "permit_num": "B 16-077726-ADD", "permit_type": "Building Permit", "per_status": "Active\/Issued", "per_subtype": "Single Family Dwelling", "work_desc": "Addition", "permit_dt": null, "est_val": 55276, "state_val": 55276, "CONTRACTOR": "Rody W Lageson", "LOCATION": "1290 EUSTIS ST\rSaint Paul, MN\r(44.979846, -93.202493)", "Lon": -93.202493, "Lat": 44.979846, "COUNT": 1 }, "geometry": { "type": "Point", "coordinates": [ -93.202493, 44.979846 ] } },
{ "type": "Feature", "properties": { "permit_num": "B 16-079190-ADD", "permit_type": "Building Permit", "per_status": "Active\/Issued", "per_subtype": "Single Family Dwelling", "work_desc": "Addition", "permit_dt": null, "est_val": 6500, "state_val": 6500, "CONTRACTOR": "WORRY FREE CONSTRUCTION LLC", "LOCATION": "1332 NILES AVE - New home\rSaint Paul, MN\r(44.925131, -93.15644)", "Lon": -93.156440, "Lat": 44.925131, "COUNT": 1 }, "geometry": { "type": "Point", "coordinates": [ -93.15644, 44.925131 ] } },
{ "type": "Feature", "properties": { "permit_num": "B 16-058272-ADD", "permit_type": "Building Permit", "per_status": "Inspected", "per_subtype": "Single Family Dwelling", "work_desc": "Addition", "permit_dt": null, "est_val": 207000, "state_val": 207000, "CONTRACTOR": "JK CARPENTRY LLC", "LOCATION": "1985 HIGHLAND PKWY\rSaint Paul, MN\r(44.919876, -93.184272)", "Lon": -93.184272, "Lat": 44.919876, "COUNT": 1 }, "geometry": { "type": "Point", "coordinates": [ -93.184272, 44.919876 ] } },
{ "type": "Feature", "properties": { "permit_num": "B 16-076577-ADD", "permit_type": "Building Permit", "per_status": "Inspected", "per_subtype": "Single Family Dwelling", "work_desc": "Addition", "permit_dt": null, "est_val": 8000, "state_val": 8000, "CONTRACTOR": "Martin G Zapon", "LOCATION": "1121 THOMAS AVE\rSaint Paul, MN\r(44.959374, -93.147678)", "Lon": -93.147678, "Lat": 44.959374, "COUNT": 1 }, "geometry": { "type": "Point", "coordinates": [ -93.147678, 44.959374 ] } },
{ "type": "Feature", "properties": { "permit_num": "B 16-070779-ADD", "permit_type": "Building Permit", "per_status": "Inspected", "per_subtype": "Single Family Dwelling", "work_desc": "Addition", "permit_dt": null, "est_val": 71000, "state_val": 71000, "CONTRACTOR": "B2 DESIGN BUILD LLC", "LOCATION": "1543 ALAMEDA ST\rSaint Paul, MN\r(44.987488, -93.129973)", "Lon": -93.129973, "Lat": 44.987488, "COUNT": 1 }, "geometry": { "type": "Point", "coordinates": [ -93.129973, 44.987488 ] } },
{ "type": "Feature", "properties": { "permit_num": "B 16-055635-ADD", "permit_type": "Building Permit", "per_status": "Inspected", "per_subtype": "Single Family Dwelling", "work_desc": "Addition", "permit_dt": null, "est_val": 90000, "state_val": 90000, "CONTRACTOR": "Rodney Bahr JVC LLC", "LOCATION": "955 ST CLAIR AVE\rSaint Paul, MN\r(44.934147, -93.140305)", "Lon": -93.140305, "Lat": 44.934147, "COUNT": 1 }, "geometry": { "type": "Point", "coordinates": [ -93.140305, 44.934147 ] } },
{ "type": "Feature", "properties": { "permit_num": "B 16-067430-ADD", "permit_type": "Building Permit", "per_status": "Active\/Issued", "per_subtype": "Single Family Dwelling", "work_desc": "Addition", "permit_dt": null, "est_val": 17785, "state_val": 17785, "CONTRACTOR": "BRAD NILLES NILLES BUILDERS INC", "LOCATION": "935 ASHLAND AVE\rSaint Paul, MN\r(44.943915, -93.139733)", "Lon": -93.139733, "Lat": 44.943915, "COUNT": 1 }, "geometry": { "type": "Point", "coordinates": [ -93.139733, 44.943915 ] } },
{ "type": "Feature", "properties": { "permit_num": "B 16-070749-ADD", "permit_type": "Building Permit", "per_status": "Active\/Issued", "per_subtype": "Commercial", "work_desc": "Addition", "permit_dt": null, "est_val": 1500000, "state_val": 1500000, "CONTRACTOR": "SITESPAN LLC", "LOCATION": "1200 ENERGY PARK DRIVE - US BANK OPERATIONS CENTER\rSaint Paul, MN\r(44.970666, -93.148832)", "Lon": -93.148832, "Lat": 44.970666, "COUNT": 1 }, "geometry": { "type": "Point", "coordinates": [ -93.148832, 44.970666 ] } },
{ "type": "Feature", "properties": { "permit_num": "B 16-052790-ADD", "permit_type": "Building Permit", "per_status": "Active\/Issued", "per_subtype": "Accessory Structure", "work_desc": "Addition", "permit_dt": null, "est_val": 12900, "state_val": 12900, "CONTRACTOR": "ZAHL EQUIPMENT CO", "LOCATION": "933 MINNEHAHA AVE W - TOBASI STOP #2\rSaint Paul, MN\r(44.962985, -93.139491)", "Lon": -93.139491, "Lat": 44.962985, "COUNT": 1 }, "geometry": { "type": "Point", "coordinates": [ -93.139491, 44.962985 ] } },
{ "type": "Feature", "properties": { "permit_num": "B 16-079826-ADD", "permit_type": "Building Permit", "per_status": "Active\/Issued", "per_subtype": "Single Family Dwelling", "work_desc": "Addition", "permit_dt": null, "est_val": 2000, "state_val": 5000, "CONTRACTOR": "Keri A Phillips", "LOCATION": "1135 DAYTON AVE\rSaint Paul, MN\r(44.947453, -93.14808)", "Lon": -93.148080, "Lat": 44.947453, "COUNT": 1 }, "geometry": { "type": "Point", "coordinates": [ -93.14808, 44.947453 ] } },
{ "type": "Feature", "properties": { "permit_num": "B 16-079279-ADD", "permit_type": "Building Permit", "per_status": "Inspected", "per_subtype": "Single Family Dwelling", "work_desc": "Addition", "permit_dt": null, "est_val": 20000, "state_val": 20000, "CONTRACTOR": "Ronda C Plathe", "LOCATION": "1576 GOODRICH AVE\rSaint Paul, MN\r(44.937964, -93.166713)", "Lon": -93.166713, "Lat": 44.937964, "COUNT": 1 }, "geometry": { "type": "Point", "coordinates": [ -93.166713, 44.937964 ] } },
{ "type": "Feature", "properties": { "permit_num": "B 16-055916-ADD", "permit_type": "Building Permit", "per_status": "Inspected", "per_subtype": "Single Family Dwelling", "work_desc": "Addition", "permit_dt": null, "est_val": 50000, "state_val": 50000, "CONTRACTOR": "Kevin L Colestock", "LOCATION": "2051 HOWARD ST S\rSaint Paul, MN\r(44.918768, -93.013921)", "Lon": -93.013921, "Lat": 44.918768, "COUNT": 1 }, "geometry": { "type": "Point", "coordinates": [ -93.013921, 44.918768 ] } },
{ "type": "Feature", "properties": { "permit_num": "B 16-026741-ADD", "permit_type": "Building Permit", "per_status": "Inspected", "per_subtype": "Single Family Dwelling", "work_desc": "Addition", "permit_dt": null, "est_val": 20000, "state_val": 20000, "CONTRACTOR": "STRUCTURES UNLIMITED OF MN", "LOCATION": "771 FAIRMOUNT AVE\rSaint Paul, MN\r(44.936731, -93.132614)", "Lon": -93.132614, "Lat": 44.936731, "COUNT": 1 }, "geometry": { "type": "Point", "coordinates": [ -93.132614, 44.936731 ] } },
{ "type": "Feature", "properties": { "permit_num": "B 16-072084-ADD", "permit_type": "Building Permit", "per_status": "Inspected", "per_subtype": "Single Family Dwelling", "work_desc": "Addition", "permit_dt": null, "est_val": 10000, "state_val": 10000, "CONTRACTOR": "ODEA CONSTRUCTION INC", "LOCATION": "1825 BAYARD AVE\rSaint Paul, MN\r(44.922036, -93.177506)", "Lon": -93.177506, "Lat": 44.922036, "COUNT": 1 }, "geometry": { "type": "Point", "coordinates": [ -93.177506, 44.922036 ] } },
{ "type": "Feature", "properties": { "permit_num": "B 16-063209-ADD", "permit_type": "Building Permit", "per_status": "Inspected", "per_subtype": "Single Family Dwelling", "work_desc": "Addition", "permit_dt": null, "est_val": 134935, "state_val": 134935, "CONTRACTOR": "Gayle Mau Merit Building Company Inc.", "LOCATION": "301 STURGIS ST\rSaint Paul, MN\r(44.938693, -93.112688)", "Lon": -93.112688, "Lat": 44.938693, "COUNT": 1 }, "geometry": { "type": "Point", "coordinates": [ -93.112688, 44.938693 ] } },
{ "type": "Feature", "properties": { "permit_num": "B 16-067851-ADD", "permit_type": "Building Permit", "per_status": "Inspected", "per_subtype": "Single Family Dwelling", "work_desc": "Addition", "permit_dt": null, "est_val": 200000, "state_val": 200000, "CONTRACTOR": "THE HOPETOWN GROUP LLC", "LOCATION": "1256 JULIET AVE\rSaint Paul, MN\r(44.929674, -93.15327)", "Lon": -93.153270, "Lat": 44.929674, "COUNT": 1 }, "geometry": { "type": "Point", "coordinates": [ -93.15327, 44.929674 ] } },
{ "type": "Feature", "properties": { "permit_num": "B 16-031959-ADD", "permit_type": "Building Permit", "per_status": "Inspected", "per_subtype": "Single Family Dwelling", "work_desc": "Addition", "permit_dt": null, "est_val": 360000, "state_val": 360000, "CONTRACTOR": "NORTHRUP REMODELING", "LOCATION": "731 FAIRMOUNT AVE\rSaint Paul, MN\r(44.936713, -93.130836)", "Lon": -93.130836, "Lat": 44.936713, "COUNT": 1 }, "geometry": { "type": "Point", "coordinates": [ -93.130836, 44.936713 ] } },
{ "type": "Feature", "properties": { "permit_num": "B 16-060084-ADD", "permit_type": "Building Permit", "per_status": "Inspected", "per_subtype": "Single Family Dwelling", "work_desc": "Addition", "permit_dt": null, "est_val": 15000, "state_val": 15000, "CONTRACTOR": "Harold Fajardo GAVIOTA CONSTRUCTION INC", "LOCATION": "1022 JENKS AVE\rSaint Paul, MN\r(44.971241, -93.057385)", "Lon": -93.057385, "Lat": 44.971241, "COUNT": 1 }, "geometry": { "type": "Point", "coordinates": [ -93.057385, 44.971241 ] } },
{ "type": "Feature", "properties": { "permit_num": "B 16-068338-ADD", "permit_type": "Building Permit", "per_status": "Inspected", "per_subtype": "Single Family Dwelling", "work_desc": "Addition", "permit_dt": null, "est_val": 13000, "state_val": 13000, "CONTRACTOR": "James R Mims", "LOCATION": "1746 GRAND AVE\rSaint Paul, MN\r(44.94007, -93.17465)", "Lon": -93.174650, "Lat": 44.940070, "COUNT": 1 }, "geometry": { "type": "Point", "coordinates": [ -93.17465, 44.94007 ] } },
{ "type": "Feature", "properties": { "permit_num": "B 16-064650-ADD", "permit_type": "Building Permit", "per_status": "Active\/Issued", "per_subtype": "Single Family Dwelling", "work_desc": "Addition", "permit_dt": null, "est_val": 28500, "state_val": 28500, "CONTRACTOR": "MIKE KILLA AUTHENTIC CONSTRUCTION COMPANY INC", "LOCATION": "1262 SEMINARY AVE\rSaint Paul, MN\r(44.96475, -93.153459)", "Lon": -93.153459, "Lat": 44.964750, "COUNT": 1 }, "geometry": { "type": "Point", "coordinates": [ -93.153459, 44.96475 ] } },
{ "type": "Feature", "properties": { "permit_num": "B 16-056502-ADD", "permit_type": "Building Permit", "per_status": "Inspected", "per_subtype": "Single Family Dwelling", "work_desc": "Addition", "permit_dt": null, "est_val": 70000, "state_val": 70000, "CONTRACTOR": "NORTHRUP REMODELING", "LOCATION": "1500 HURON ST\rSaint Paul, MN\r(44.98631, -93.155352)", "Lon": -93.155352, "Lat": 44.986310, "COUNT": 1 }, "geometry": { "type": "Point", "coordinates": [ -93.155352, 44.98631 ] } },
{ "type": "Feature", "properties": { "permit_num": "B 16-061669-ADD", "permit_type": "Building Permit", "per_status": "Inspected", "per_subtype": "Single Family Dwelling", "work_desc": "Addition", "permit_dt": null, "est_val": 55000, "state_val": 55000, "CONTRACTOR": "RIVER VALLEY RESTORATION LLC", "LOCATION": "1844 MUNSTER AVE\rSaint Paul, MN\r(44.899859, -93.178316)", "Lon": -93.178316, "Lat": 44.899859, "COUNT": 1 }, "geometry": { "type": "Point", "coordinates": [ -93.178316, 44.899859 ] } },
{ "type": "Feature", "properties": { "permit_num": "B 16-042022-ADD", "permit_type": "Building Permit", "per_status": "Inspected", "per_subtype": "Single Family Dwelling", "work_desc": "Addition", "permit_dt": null, "est_val": 49000, "state_val": 49000, "CONTRACTOR": "QUARVE CONTRACTING INC", "LOCATION": "605 FAIRVIEW AVE S\rSaint Paul, MN\r(44.923273, -93.177189)", "Lon": -93.177189, "Lat": 44.923273, "COUNT": 1 }, "geometry": { "type": "Point", "coordinates": [ -93.177189, 44.923273 ] } },
{ "type": "Feature", "properties": { "permit_num": "B 16-035636-ADD", "permit_type": "Building Permit", "per_status": "Inspected", "per_subtype": "Single Family Dwelling", "work_desc": "Addition", "permit_dt": null, "est_val": 150000, "state_val": 150000, "CONTRACTOR": "GREAT NORTHERN BUILDERS LLC", "LOCATION": "2157 HIGHLAND PKWY\rSaint Paul, MN\r(44.919827, -93.191471)", "Lon": -93.191471, "Lat": 44.919827, "COUNT": 1 }, "geometry": { "type": "Point", "coordinates": [ -93.191471, 44.919827 ] } },
{ "type": "Feature", "properties": { "permit_num": "B 16-045685-ADD", "permit_type": "Building Permit", "per_status": "Inspected", "per_subtype": "2-Family\/Duplex", "work_desc": "Addition", "permit_dt": null, "est_val": 275343, "state_val": 275343, "CONTRACTOR": "Gregory T Ryan", "LOCATION": "1963 MARSHALL AVE\rSaint Paul, MN\r(44.948447, -93.183348)", "Lon": -93.183348, "Lat": 44.948447, "COUNT": 1 }, "geometry": { "type": "Point", "coordinates": [ -93.183348, 44.948447 ] } },
{ "type": "Feature", "properties": { "permit_num": "B 16-059848-ADD", "permit_type": "Building Permit", "per_status": "Inspected", "per_subtype": "Single Family Dwelling", "work_desc": "Addition", "permit_dt": null, "est_val": 84000, "state_val": 84000, "CONTRACTOR": "THE CROWN CONSTRUCTION COMPANY INC", "LOCATION": "1400 HUBBARD AVE\rSaint Paul, MN\r(44.965332, -93.159515)", "Lon": -93.159515, "Lat": 44.965332, "COUNT": 1 }, "geometry": { "type": "Point", "coordinates": [ -93.159515, 44.965332 ] } },
{ "type": "Feature", "properties": { "permit_num": "B 16-058728-ADD", "permit_type": "Building Permit", "per_status": "Inspected", "per_subtype": "Accessory Structure", "work_desc": "Addition", "permit_dt": null, "est_val": 1000, "state_val": 1000, "CONTRACTOR": "Sherelyn Ogden", "LOCATION": "781 LINCOLN AVE\rSaint Paul, MN\r(44.938864, -93.133018)", "Lon": -93.133018, "Lat": 44.938864, "COUNT": 1 }, "geometry": { "type": "Point", "coordinates": [ -93.133018, 44.938864 ] } },
{ "type": "Feature", "properties": { "permit_num": "B 16-069363-ADD", "permit_type": "Building Permit", "per_status": "Inspected", "per_subtype": "Single Family Dwelling", "work_desc": "Addition", "permit_dt": null, "est_val": 8000, "state_val": 8000, "CONTRACTOR": "Lynda J Bisanz", "LOCATION": "5 CROCUS HILL\rSaint Paul, MN\r(44.938208, -93.123167)", "Lon": -93.123167, "Lat": 44.938208, "COUNT": 1 }, "geometry": { "type": "Point", "coordinates": [ -93.123167, 44.938208 ] } },
{ "type": "Feature", "properties": { "permit_num": "B 16-053286-ADD", "permit_type": "Building Permit", "per_status": "Inspected", "per_subtype": "Single Family Dwelling", "work_desc": "Addition", "permit_dt": null, "est_val": 150000, "state_val": 150000, "CONTRACTOR": "LOFGREN CONSTRUCTION LLC", "LOCATION": "1845 LINCOLN AVE\rSaint Paul, MN\r(44.938997, -93.178242)", "Lon": -93.178242, "Lat": 44.938997, "COUNT": 1 }, "geometry": { "type": "Point", "coordinates": [ -93.178242, 44.938997 ] } },
{ "type": "Feature", "properties": { "permit_num": "B 16-057792-ADD", "permit_type": "Building Permit", "per_status": "Inspected", "per_subtype": "Single Family Dwelling", "work_desc": "Addition", "permit_dt": null, "est_val": 3000, "state_val": 13650, "CONTRACTOR": "Jennifer M Conway", "LOCATION": "686 ARLINGTON AVE E\rSaint Paul, MN\r(44.984694, -93.071783)", "Lon": -93.071783, "Lat": 44.984694, "COUNT": 1 }, "geometry": { "type": "Point", "coordinates": [ -93.071783, 44.984694 ] } },
{ "type": "Feature", "properties": { "permit_num": "B 16-066941-ADD", "permit_type": "Building Permit", "per_status": "Inspected", "per_subtype": "Single Family Dwelling", "work_desc": "Addition", "permit_dt": null, "est_val": 40000, "state_val": 40000, "CONTRACTOR": "ANN FONTAINE", "LOCATION": "668 SUMNER ST\rSaint Paul, MN\r(44.921466, -93.183337)", "Lon": -93.183337, "Lat": 44.921466, "COUNT": 1 }, "geometry": { "type": "Point", "coordinates": [ -93.183337, 44.921466 ] } },
{ "type": "Feature", "properties": { "permit_num": "B 16-055496-ADD", "permit_type": "Building Permit", "per_status": "Inspected", "per_subtype": "Single Family Dwelling", "work_desc": "Addition", "permit_dt": null, "est_val": 208869, "state_val": 208869, "CONTRACTOR": "WANDREI CONSTRUCTION CO INC", "LOCATION": "1757 JEFFERSON AVE\rSaint Paul, MN\r(44.930638, -93.174468)", "Lon": -93.174468, "Lat": 44.930638, "COUNT": 1 }, "geometry": { "type": "Point", "coordinates": [ -93.174468, 44.930638 ] } },
{ "type": "Feature", "properties": { "permit_num": "B 16-044030-ADD", "permit_type": "Building Permit", "per_status": "Inspected", "per_subtype": "Single Family Dwelling", "work_desc": "Addition", "permit_dt": null, "est_val": 100000, "state_val": 100000, "CONTRACTOR": "Mr Nathan Anderson CONCEPTUAL CARPENTRY LLC", "LOCATION": "2386 BUFORD AVE\rSaint Paul, MN\r(44.984441, -93.200817)", "Lon": -93.200817, "Lat": 44.984441, "COUNT": 1 }, "geometry": { "type": "Point", "coordinates": [ -93.200817, 44.984441 ] } },
{ "type": "Feature", "properties": { "permit_num": "B 16-053752-ADD", "permit_type": "Building Permit", "per_status": "Inspected", "per_subtype": "Single Family Dwelling", "work_desc": "Addition", "permit_dt": null, "est_val": 70000, "state_val": 60288, "CONTRACTOR": "RONCOR CONSTRUCTION INC", "LOCATION": "2122 HIGHLAND PKWY\rSaint Paul, MN\r(44.919725, -93.190124)", "Lon": -93.190124, "Lat": 44.919725, "COUNT": 1 }, "geometry": { "type": "Point", "coordinates": [ -93.190124, 44.919725 ] } },
{ "type": "Feature", "properties": { "permit_num": "B 16-041991-ADD", "permit_type": "Building Permit", "per_status": "Inspected", "per_subtype": "Single Family Dwelling", "work_desc": "Addition", "permit_dt": null, "est_val": 110000, "state_val": 110000, "CONTRACTOR": "RAVEN BUILDERS INC", "LOCATION": "1109 THORN ST\rSaint Paul, MN\r(44.947323, -93.053568)", "Lon": -93.053568, "Lat": 44.947323, "COUNT": 1 }, "geometry": { "type": "Point", "coordinates": [ -93.053568, 44.947323 ] } },
{ "type": "Feature", "properties": { "permit_num": "B 16-037747-ADD", "permit_type": "Building Permit", "per_status": "Inspected", "per_subtype": "Accessory Structure", "work_desc": "Addition", "permit_dt": null, "est_val": 13700, "state_val": 13700, "CONTRACTOR": "CCRC", "LOCATION": "574 SUMMIT AVE\rSaint Paul, MN\r(44.941322, -93.124358)", "Lon": -93.124358, "Lat": 44.941322, "COUNT": 1 }, "geometry": { "type": "Point", "coordinates": [ -93.124358, 44.941322 ] } },
{ "type": "Feature", "properties": { "permit_num": "B 16-040362-ADD", "permit_type": "Building Permit", "per_status": "Active\/Issued", "per_subtype": "Commercial", "work_desc": "Addition", "permit_dt": null, "est_val": 5000, "state_val": 5000, "CONTRACTOR": "Pillars Investment Group Llc", "LOCATION": "217 COMO AVE - Shaw Lumber\rSaint Paul, MN\r(44.96071, -93.10915)", "Lon": -93.109150, "Lat": 44.960710, "COUNT": 1 }, "geometry": { "type": "Point", "coordinates": [ -93.10915, 44.96071 ] } },
{ "type": "Feature", "properties": { "permit_num": "B 16-024720-ADD", "permit_type": "Building Permit", "per_status": "Inspected", "per_subtype": "Single Family Dwelling", "work_desc": "Addition", "permit_dt": null, "est_val": 130000, "state_val": 130000, "CONTRACTOR": "CALLCO HOMES LLC", "LOCATION": "1661 JEFFERSON AVE\rSaint Paul, MN\r(44.930641, -93.17051)", "Lon": -93.170510, "Lat": 44.930641, "COUNT": 1 }, "geometry": { "type": "Point", "coordinates": [ -93.17051, 44.930641 ] } },
{ "type": "Feature", "properties": { "permit_num": "B 16-044415-ADD", "permit_type": "Building Permit", "per_status": "Active\/Issued", "per_subtype": "Single Family Dwelling", "work_desc": "Addition", "permit_dt": null, "est_val": 10000, "state_val": 10000, "CONTRACTOR": "J AND D BUILDERS INC", "LOCATION": "1503 ASHLAND AVE\rSaint Paul, MN\r(44.943958, -93.163676)", "Lon": -93.163676, "Lat": 44.943958, "COUNT": 1 }, "geometry": { "type": "Point", "coordinates": [ -93.163676, 44.943958 ] } },
{ "type": "Feature", "properties": { "permit_num": "B 16-042343-ADD", "permit_type": "Building Permit", "per_status": "Inspected", "per_subtype": "Single Family Dwelling", "work_desc": "Addition", "permit_dt": null, "est_val": 115000, "state_val": 115000, "CONTRACTOR": "LANDRIC ASSOCIATES LIMITED", "LOCATION": "213 MOUNT HOPE DRIVE\rSaint Paul, MN\r(44.928014, -93.076607)", "Lon": -93.076607, "Lat": 44.928014, "COUNT": 1 }, "geometry": { "type": "Point", "coordinates": [ -93.076607, 44.928014 ] } },
{ "type": "Feature", "properties": { "permit_num": "B 16-053706-ADD", "permit_type": "Building Permit", "per_status": "Inspected", "per_subtype": "Single Family Dwelling", "work_desc": "Addition", "permit_dt": null, "est_val": 30000, "state_val": 30000, "CONTRACTOR": "Thomas C Farrell", "LOCATION": "1340 GROTTO ST N\rSaint Paul, MN\r(44.981574, -93.131341)", "Lon": -93.131341, "Lat": 44.981574, "COUNT": 1 }, "geometry": { "type": "Point", "coordinates": [ -93.131341, 44.981574 ] } },
{ "type": "Feature", "properties": { "permit_num": "B 15-168283-ADD", "permit_type": "Building Permit", "per_status": "Inspected", "per_subtype": "Single Family Dwelling", "work_desc": "Addition", "permit_dt": null, "est_val": 160000, "state_val": 160000, "CONTRACTOR": "Roger A Pfiffner", "LOCATION": "2221 BOXWOOD AVE\rSaint Paul, MN\r(44.905082, -93.006439)", "Lon": -93.006439, "Lat": 44.905082, "COUNT": 1 }, "geometry": { "type": "Point", "coordinates": [ -93.006439, 44.905082 ] } },
{ "type": "Feature", "properties": { "permit_num": "B 16-023810-ADD", "permit_type": "Building Permit", "per_status": "Inspected", "per_subtype": "Institutional", "work_desc": "Addition", "permit_dt": null, "est_val": 14421092, "state_val": 14421092, "CONTRACTOR": "PETER JORDAN CORVAL CONSTRUCTORS INC", "LOCATION": "1349 ARCADE ST - JOHNSON SENIOR HIGH SCHOOL\rSaint Paul, MN\r(44.981573, -93.065991)", "Lon": -93.065991, "Lat": 44.981573, "COUNT": 1 }, "geometry": { "type": "Point", "coordinates": [ -93.065991, 44.981573 ] } },
{ "type": "Feature", "properties": { "permit_num": "B 16-052742-ADD", "permit_type": "Building Permit", "per_status": "Inspected", "per_subtype": "Single Family Dwelling", "work_desc": "Addition", "permit_dt": null, "est_val": 175000, "state_val": 175000, "CONTRACTOR": "MIKE KLEHR INC", "LOCATION": "2033 PORTLAND AVE\rSaint Paul, MN\r(44.942929, -93.186287)", "Lon": -93.186287, "Lat": 44.942929, "COUNT": 1 }, "geometry": { "type": "Point", "coordinates": [ -93.186287, 44.942929 ] } },
{ "type": "Feature", "properties": { "permit_num": "B 16-025470-ADD", "permit_type": "Building Permit", "per_status": "Inspected", "per_subtype": "Single Family Dwelling", "work_desc": "Addition", "permit_dt": null, "est_val": 55000, "state_val": 73846, "CONTRACTOR": "Richard Farrell", "LOCATION": "2082 SCHEFFER AVE\rSaint Paul, MN\r(44.921614, -93.188479)", "Lon": -93.188479, "Lat": 44.921614, "COUNT": 1 }, "geometry": { "type": "Point", "coordinates": [ -93.188479, 44.921614 ] } },
{ "type": "Feature", "properties": { "permit_num": "B 16-042250-ADD", "permit_type": "Building Permit", "per_status": "Inspected", "per_subtype": "Single Family Dwelling", "work_desc": "Addition", "permit_dt": null, "est_val": 130000, "state_val": 130000, "CONTRACTOR": "Mr MICHAEL BEEBE BEEBE CONSTRUCTION", "LOCATION": "375 PELHAM BLVD\rSaint Paul, MN\r(44.954965, -93.200166)", "Lon": -93.200166, "Lat": 44.954965, "COUNT": 1 }, "geometry": { "type": "Point", "coordinates": [ -93.200166, 44.954965 ] } },
{ "type": "Feature", "properties": { "permit_num": "B 16-032387-ADD", "permit_type": "Building Permit", "per_status": "Inspected", "per_subtype": "Single Family Dwelling", "work_desc": "Addition", "permit_dt": null, "est_val": 15000, "state_val": 15000, "CONTRACTOR": "PLUM TREE REMODELING LLC", "LOCATION": "1001 OSCEOLA AVE\rSaint Paul, MN\r(44.935707, -93.142375)", "Lon": -93.142375, "Lat": 44.935707, "COUNT": 1 }, "geometry": { "type": "Point", "coordinates": [ -93.142375, 44.935707 ] } },
{ "type": "Feature", "properties": { "permit_num": "B 16-041753-ADD", "permit_type": "Building Permit", "per_status": "Inspected", "per_subtype": "Single Family Dwelling", "work_desc": "Addition", "permit_dt": null, "est_val": 1500, "state_val": 4160, "CONTRACTOR": "William E Mena Aguilar", "LOCATION": "859 LAKE ST\rSaint Paul, MN\r(44.967382, -93.006487)", "Lon": -93.006487, "Lat": 44.967382, "COUNT": 1 }, "geometry": { "type": "Point", "coordinates": [ -93.006487, 44.967382 ] } },
{ "type": "Feature", "properties": { "permit_num": "B 16-050289-ADD", "permit_type": "Building Permit", "per_status": "Inspected", "per_subtype": "Single Family Dwelling", "work_desc": "Addition", "permit_dt": null, "est_val": 1000, "state_val": 4300, "CONTRACTOR": "Cullen R Deck", "LOCATION": "1595 FERNWOOD ST\rSaint Paul, MN\r(44.989314, -93.151405)", "Lon": -93.151405, "Lat": 44.989314, "COUNT": 1 }, "geometry": { "type": "Point", "coordinates": [ -93.151405, 44.989314 ] } },
{ "type": "Feature", "properties": { "permit_num": "B 16-055459-ADD", "permit_type": "Building Permit", "per_status": "Inspected", "per_subtype": "Single Family Dwelling", "work_desc": "Addition", "permit_dt": null, "est_val": 250000, "state_val": 250000, "CONTRACTOR": "OTOGAWA ANSCHEL DESIGN BUILD", "LOCATION": "763 CHEROKEE AVE\rSaint Paul, MN\r(44.923015, -93.104661)", "Lon": -93.104661, "Lat": 44.923015, "COUNT": 1 }, "geometry": { "type": "Point", "coordinates": [ -93.104661, 44.923015 ] } },
{ "type": "Feature", "properties": { "permit_num": "B 16-049103-ADD", "permit_type": "Building Permit", "per_status": "Inspected", "per_subtype": "Single Family Dwelling", "work_desc": "Addition", "permit_dt": null, "est_val": 27000, "state_val": 27000, "CONTRACTOR": "SANTANNI BUILDING CORP", "LOCATION": "1490 SCHEFFER AVE\rSaint Paul, MN\r(44.921516, -93.163243)", "Lon": -93.163243, "Lat": 44.921516, "COUNT": 1 }, "geometry": { "type": "Point", "coordinates": [ -93.163243, 44.921516 ] } },
{ "type": "Feature", "properties": { "permit_num": "B 16-048321-ADD", "permit_type": "Building Permit", "per_status": "Inspected", "per_subtype": "Single Family Dwelling", "work_desc": "Addition", "permit_dt": null, "est_val": 50000, "state_val": 50000, "CONTRACTOR": "LATULIPPE CONSTRUCTION INC", "LOCATION": "1080 BOWDOIN ST\rSaint Paul, MN\r(44.908886, -93.188503)", "Lon": -93.188503, "Lat": 44.908886, "COUNT": 1 }, "geometry": { "type": "Point", "coordinates": [ -93.188503, 44.908886 ] } },
{ "type": "Feature", "properties": { "permit_num": "B 16-015220-ADD", "permit_type": "Building Permit", "per_status": "Inspected", "per_subtype": "2-Family\/Duplex", "work_desc": "Addition", "permit_dt": null, "est_val": 157000, "state_val": 120000, "CONTRACTOR": "ORGANIC COMPASS LLC", "LOCATION": "975 LINCOLN AVE\rSaint Paul, MN\r(44.938904, -93.141281)", "Lon": -93.141281, "Lat": 44.938904, "COUNT": 1 }, "geometry": { "type": "Point", "coordinates": [ -93.141281, 44.938904 ] } },
{ "type": "Feature", "properties": { "permit_num": "B 16-030585-ADD", "permit_type": "Building Permit", "per_status": "Inspected", "per_subtype": "Single Family Dwelling", "work_desc": "Addition", "permit_dt": null, "est_val": 172000, "state_val": 172000, "CONTRACTOR": "STROLE & COMPANY LLC", "LOCATION": "2053 UPPER ST DENNIS ROAD\rSaint Paul, MN\r(44.907751, -93.164798)", "Lon": -93.164798, "Lat": 44.907751, "COUNT": 1 }, "geometry": { "type": "Point", "coordinates": [ -93.164798, 44.907751 ] } },
{ "type": "Feature", "properties": { "permit_num": "B 16-050907-ADD", "permit_type": "Building Permit", "per_status": "Inspected", "per_subtype": "Single Family Dwelling", "work_desc": "Addition", "permit_dt": null, "est_val": 82005, "state_val": 82005, "CONTRACTOR": "BUILDING ARTS SUSTAINABLE ARCHITECTURE & CONSTRUCTION LLC", "LOCATION": "919 PARKVIEW AVE\rSaint Paul, MN\r(44.983481, -93.139028)", "Lon": -93.139028, "Lat": 44.983481, "COUNT": 1 }, "geometry": { "type": "Point", "coordinates": [ -93.139028, 44.983481 ] } },
{ "type": "Feature", "properties": { "permit_num": "B 16-051892-ADD", "permit_type": "Building Permit", "per_status": "Inspected", "per_subtype": "Single Family Dwelling", "work_desc": "Addition", "permit_dt": null, "est_val": 130000, "state_val": 130000, "CONTRACTOR": "SUPERIOR CONSTRUCTION SERVICES INC", "LOCATION": "2094 NOKOMIS AVE\rSaint Paul, MN\r(44.967174, -93.013023)", "Lon": -93.013023, "Lat": 44.967174, "COUNT": 1 }, "geometry": { "type": "Point", "coordinates": [ -93.013023, 44.967174 ] } },
{ "type": "Feature", "properties": { "permit_num": "B 16-032463-ADD", "permit_type": "Building Permit", "per_status": "Inspected", "per_subtype": "Single Family Dwelling", "work_desc": "Addition", "permit_dt": null, "est_val": 18000, "state_val": 28000, "CONTRACTOR": "Terry M Draeger", "LOCATION": "1377 WELLESLEY AVE\rSaint Paul, MN\r(44.931502, -93.158445)", "Lon": -93.158445, "Lat": 44.931502, "COUNT": 1 }, "geometry": { "type": "Point", "coordinates": [ -93.158445, 44.931502 ] } },
{ "type": "Feature", "properties": { "permit_num": "B 16-048279-ADD", "permit_type": "Building Permit", "per_status": "Inspected", "per_subtype": "Single Family Dwelling", "work_desc": "Addition", "permit_dt": null, "est_val": 145000, "state_val": 131448, "CONTRACTOR": "Raeker PRO VISION CONSTRUCTION", "LOCATION": "707 WOODLAWN AVE\rSaint Paul, MN\r(44.920165, -93.196914)", "Lon": -93.196914, "Lat": 44.920165, "COUNT": 1 }, "geometry": { "type": "Point", "coordinates": [ -93.196914, 44.920165 ] } },
{ "type": "Feature", "properties": { "permit_num": "B 16-037925-ADD", "permit_type": "Building Permit", "per_status": "Inspected", "per_subtype": "Single Family Dwelling", "work_desc": "Addition", "permit_dt": null, "est_val": 58000, "state_val": 144123, "CONTRACTOR": "CHARLES NOSIE", "LOCATION": "1239 NILES AVE\rSaint Paul, MN\r(44.925111, -93.152537)", "Lon": -93.152537, "Lat": 44.925111, "COUNT": 1 }, "geometry": { "type": "Point", "coordinates": [ -93.152537, 44.925111 ] } },
{ "type": "Feature", "properties": { "permit_num": "B 16-015799-ADD", "permit_type": "Building Permit", "per_status": "Inspected", "per_subtype": "Single Family Dwelling", "work_desc": "Addition", "permit_dt": null, "est_val": 78000, "state_val": 78000, "CONTRACTOR": "Kevin V Heinz", "LOCATION": "1411 GOODRICH AVE\rSaint Paul, MN\r(44.937915, -93.159801)", "Lon": -93.159801, "Lat": 44.937915, "COUNT": 1 }, "geometry": { "type": "Point", "coordinates": [ -93.159801, 44.937915 ] } },
{ "type": "Feature", "properties": { "permit_num": "B 16-027317-ADD", "permit_type": "Building Permit", "per_status": "Inspected", "per_subtype": "Single Family Dwelling", "work_desc": "Addition", "permit_dt": null, "est_val": 800, "state_val": 800, "CONTRACTOR": "Ying Vang", "LOCATION": "2072 4TH ST E\rSaint Paul, MN\r(44.958545, -93.012951)", "Lon": -93.012951, "Lat": 44.958545, "COUNT": 1 }, "geometry": { "type": "Point", "coordinates": [ -93.012951, 44.958545 ] } },
{ "type": "Feature", "properties": { "permit_num": "B 16-035049-ADD", "permit_type": "Building Permit", "per_status": "Inspected", "per_subtype": "Commercial", "work_desc": "Addition", "permit_dt": null, "est_val": 21185, "state_val": 21185, "CONTRACTOR": "M & M INSULATION", "LOCATION": "175 CESAR CHAVEZ ST - EL BURRITO MERCADO\rSaint Paul, MN\r(44.929635, -93.077417)", "Lon": -93.077417, "Lat": 44.929635, "COUNT": 1 }, "geometry": { "type": "Point", "coordinates": [ -93.077417, 44.929635 ] } },
{ "type": "Feature", "properties": { "permit_num": "B 16-041430-ADD", "permit_type": "Building Permit", "per_status": "Inspected", "per_subtype": "Single Family Dwelling", "work_desc": "Addition", "permit_dt": null, "est_val": 98718, "state_val": 98718, "CONTRACTOR": "Eric Prchal BELLA REMODELING AND ROOFING", "LOCATION": "511 HOYT AVE E\rSaint Paul, MN\r(44.98828, -93.079153)", "Lon": -93.079153, "Lat": 44.988280, "COUNT": 1 }, "geometry": { "type": "Point", "coordinates": [ -93.079153, 44.98828 ] } },
{ "type": "Feature", "properties": { "permit_num": "B 16-044604-ADD", "permit_type": "Building Permit", "per_status": "Inspected", "per_subtype": "Single Family Dwelling", "work_desc": "Addition", "permit_dt": null, "est_val": 3062, "state_val": 3062, "CONTRACTOR": "Molly Moua Thao", "LOCATION": "385 SIMS AVE\rSaint Paul, MN\r(44.969038, -93.084256)", "Lon": -93.084256, "Lat": 44.969038, "COUNT": 1 }, "geometry": { "type": "Point", "coordinates": [ -93.084256, 44.969038 ] } },
{ "type": "Feature", "properties": { "permit_num": "B 16-025334-ADD", "permit_type": "Building Permit", "per_status": "Inspected", "per_subtype": "Single Family Dwelling", "work_desc": "Addition", "permit_dt": null, "est_val": 70000, "state_val": 70000, "CONTRACTOR": "TRUBUILD CONSTRUCTION LLC", "LOCATION": "1852 JAMES AVE\rSaint Paul, MN\r(44.927922, -93.178628)", "Lon": -93.178628, "Lat": 44.927922, "COUNT": 1 }, "geometry": { "type": "Point", "coordinates": [ -93.178628, 44.927922 ] } },
{ "type": "Feature", "properties": { "permit_num": "B 16-029540-ADD", "permit_type": "Building Permit", "per_status": "Inspected", "per_subtype": "Single Family Dwelling", "work_desc": "Addition", "permit_dt": null, "est_val": 79900, "state_val": 79900, "CONTRACTOR": "HOME TAILORS BUILDING AND REMODELING INC", "LOCATION": "1455 GRANTHAM ST\rSaint Paul, MN\r(44.985112, -93.194092)", "Lon": -93.194092, "Lat": 44.985112, "COUNT": 1 }, "geometry": { "type": "Point", "coordinates": [ -93.194092, 44.985112 ] } },
{ "type": "Feature", "properties": { "permit_num": "B 16-033375-ADD", "permit_type": "Building Permit", "per_status": "Inspected", "per_subtype": "Single Family Dwelling", "work_desc": "Addition", "permit_dt": null, "est_val": 250000, "state_val": 250000, "CONTRACTOR": "FULL CIRCLE CONSTRUCTION INC", "LOCATION": "780 OSCEOLA AVE\rSaint Paul, MN\r(44.935672, -93.132882)", "Lon": -93.132882, "Lat": 44.935672, "COUNT": 1 }, "geometry": { "type": "Point", "coordinates": [ -93.132882, 44.935672 ] } },
{ "type": "Feature", "properties": { "permit_num": "B 16-026792-ADD", "permit_type": "Building Permit", "per_status": "Active\/Issued", "per_subtype": "Institutional", "work_desc": "Addition", "permit_dt": null, "est_val": 8439105, "state_val": 8439105, "CONTRACTOR": "KRAUS ANDERSON CONSTRUCTION COMPANY MPLS DIVISION", "LOCATION": "640 JACKSON ST - REGIONS HOSPITAL\rSaint Paul, MN\r(44.955083, -93.096026)", "Lon": -93.096026, "Lat": 44.955083, "COUNT": 1 }, "geometry": { "type": "Point", "coordinates": [ -93.096026, 44.955083 ] } },
{ "type": "Feature", "properties": { "permit_num": "B 16-026279-ADD", "permit_type": "Building Permit", "per_status": "Inspected", "per_subtype": "Single Family Dwelling", "work_desc": "Addition", "permit_dt": null, "est_val": 150000, "state_val": 150000, "CONTRACTOR": "MACDONALD CONSTRUCTION SERVICES LLC", "LOCATION": "104 MOUNDS BLVD\rSaint Paul, MN\r(44.948208, -93.065195)", "Lon": -93.065195, "Lat": 44.948208, "COUNT": 1 }, "geometry": { "type": "Point", "coordinates": [ -93.065195, 44.948208 ] } },
{ "type": "Feature", "properties": { "permit_num": "B 16-043842-ADD", "permit_type": "Building Permit", "per_status": "Inspected", "per_subtype": "Institutional", "work_desc": "Addition", "permit_dt": null, "est_val": 650000, "state_val": 650000, "CONTRACTOR": "PETER JORDAN CORVAL CONSTRUCTORS INC", "LOCATION": "1349 ARCADE ST - JOHNSON SENIOR HIGH SCHOOL\rSaint Paul, MN\r(44.981573, -93.065991)", "Lon": -93.065991, "Lat": 44.981573, "COUNT": 1 }, "geometry": { "type": "Point", "coordinates": [ -93.065991, 44.981573 ] } },
{ "type": "Feature", "properties": { "permit_num": "B 16-020071-ADD", "permit_type": "Building Permit", "per_status": "Inspected", "per_subtype": "Single Family Dwelling", "work_desc": "Addition", "permit_dt": null, "est_val": 150000, "state_val": 150000, "CONTRACTOR": "MORRIS W MESENBRING", "LOCATION": "1296 PALACE AVE\rSaint Paul, MN\r(44.928748, -93.154921)", "Lon": -93.154921, "Lat": 44.928748, "COUNT": 1 }, "geometry": { "type": "Point", "coordinates": [ -93.154921, 44.928748 ] } },
{ "type": "Feature", "properties": { "permit_num": "B 16-047563-ADD", "permit_type": "Building Permit", "per_status": "Inspected", "per_subtype": "Accessory Structure", "work_desc": "Addition", "permit_dt": null, "est_val": 8000, "state_val": 8000, "CONTRACTOR": "Brian H Miller", "LOCATION": "197 PRESCOTT ST\rSaint Paul, MN\r(44.927543, -93.077539)", "Lon": -93.077539, "Lat": 44.927543, "COUNT": 1 }, "geometry": { "type": "Point", "coordinates": [ -93.077539, 44.927543 ] } },
{ "type": "Feature", "properties": { "permit_num": "B 16-030711-ADD", "permit_type": "Building Permit", "per_status": "Inspected", "per_subtype": "Single Family Dwelling", "work_desc": "Addition", "permit_dt": null, "est_val": 22000, "state_val": 22000, "CONTRACTOR": "WOODSTONE RENOVATION LLC", "LOCATION": "780 GOODRICH AVE\rSaint Paul, MN\r(44.937796, -93.133044)", "Lon": -93.133044, "Lat": 44.937796, "COUNT": 1 }, "geometry": { "type": "Point", "coordinates": [ -93.133044, 44.937796 ] } },
{ "type": "Feature", "properties": { "permit_num": "B 16-032702-ADD", "permit_type": "Building Permit", "per_status": "Inspected", "per_subtype": "Accessory Structure", "work_desc": "Addition", "permit_dt": null, "est_val": 35000, "state_val": 35000, "CONTRACTOR": "TBH BUILDERS AND REMODELERS INC", "LOCATION": "654 LAUREL AVE\rSaint Paul, MN\r(44.944951, -93.127685)", "Lon": -93.127685, "Lat": 44.944951, "COUNT": 1 }, "geometry": { "type": "Point", "coordinates": [ -93.127685, 44.944951 ] } },
{ "type": "Feature", "properties": { "permit_num": "B 16-025673-ADD", "permit_type": "Building Permit", "per_status": "Inspected", "per_subtype": "Single Family Dwelling", "work_desc": "Addition", "permit_dt": null, "est_val": 100000, "state_val": 100000, "CONTRACTOR": "CAMPBELL CONSTRUCTION OF WORTHINGTON INC", "LOCATION": "1801 BOHLAND AVE\rSaint Paul, MN\r(44.91616, -93.176234)", "Lon": -93.176234, "Lat": 44.916160, "COUNT": 1 }, "geometry": { "type": "Point", "coordinates": [ -93.176234, 44.91616 ] } },
{ "type": "Feature", "properties": { "permit_num": "B 16-026551-ADD", "permit_type": "Building Permit", "per_status": "Inspected", "per_subtype": "Single Family Dwelling", "work_desc": "Addition", "permit_dt": null, "est_val": 50000, "state_val": 50000, "CONTRACTOR": "WOOD DUCK DESIGNERS BUILDERS INC", "LOCATION": "683 ROY ST S\rSaint Paul, MN\r(44.920725, -93.168338)", "Lon": -93.168338, "Lat": 44.920725, "COUNT": 1 }, "geometry": { "type": "Point", "coordinates": [ -93.168338, 44.920725 ] } },
{ "type": "Feature", "properties": { "permit_num": "B 16-029550-ADD", "permit_type": "Building Permit", "per_status": "Inspected", "per_subtype": "Single Family Dwelling", "work_desc": "Addition", "permit_dt": null, "est_val": 65000, "state_val": 65000, "CONTRACTOR": "FAIR & SQUARE REMODELING LLC", "LOCATION": "1358 ALMOND AVE\rSaint Paul, MN\r(44.979185, -93.15762)", "Lon": -93.157620, "Lat": 44.979185, "COUNT": 1 }, "geometry": { "type": "Point", "coordinates": [ -93.15762, 44.979185 ] } },
{ "type": "Feature", "properties": { "permit_num": "B 16-016352-ADD", "permit_type": "Building Permit", "per_status": "Inspected", "per_subtype": "Institutional", "work_desc": "Addition", "permit_dt": null, "est_val": 2811000, "state_val": 2811000, "CONTRACTOR": "TARRAF CONSTRUCTION INC", "LOCATION": "2530 EDGCUMBE ROAD - St Paul Fire Station #19\rSaint Paul, MN\r(44.903691, -93.177083)", "Lon": -93.177083, "Lat": 44.903691, "COUNT": 1 }, "geometry": { "type": "Point", "coordinates": [ -93.177083, 44.903691 ] } },
{ "type": "Feature", "properties": { "permit_num": "B 16-010811-ADD", "permit_type": "Building Permit", "per_status": "Inspected", "per_subtype": "Single Family Dwelling", "work_desc": "Addition", "permit_dt": null, "est_val": 150000, "state_val": 150000, "CONTRACTOR": "MATTSON SCHUSTER LLC", "LOCATION": "1739 BEECHWOOD AVE\rSaint Paul, MN\r(44.915226, -93.173776)", "Lon": -93.173776, "Lat": 44.915226, "COUNT": 1 }, "geometry": { "type": "Point", "coordinates": [ -93.173776, 44.915226 ] } },
{ "type": "Feature", "properties": { "permit_num": "B 16-031896-ADD", "permit_type": "Building Permit", "per_status": "Inspected", "per_subtype": "Single Family Dwelling", "work_desc": "Addition", "permit_dt": null, "est_val": 12000, "state_val": 12000, "CONTRACTOR": "Sam P Walseth", "LOCATION": "1146 MARSHALL AVE\rSaint Paul, MN\r(44.948543, -93.148534)", "Lon": -93.148534, "Lat": 44.948543, "COUNT": 1 }, "geometry": { "type": "Point", "coordinates": [ -93.148534, 44.948543 ] } },
{ "type": "Feature", "properties": { "permit_num": "B 16-034982-ADD", "permit_type": "Building Permit", "per_status": "Active\/Issued", "per_subtype": "Single Family Dwelling", "work_desc": "Addition", "permit_dt": null, "est_val": 18000, "state_val": 18000, "CONTRACTOR": "Dawayne A Heiden", "LOCATION": "305 MORTON ST W\rSaint Paul, MN\r(44.925618, -93.098492)", "Lon": -93.098492, "Lat": 44.925618, "COUNT": 1 }, "geometry": { "type": "Point", "coordinates": [ -93.098492, 44.925618 ] } },
{ "type": "Feature", "properties": { "permit_num": "B 16-031345-ADD", "permit_type": "Building Permit", "per_status": "Inspected", "per_subtype": "Single Family Dwelling", "work_desc": "Addition", "permit_dt": null, "est_val": 6000, "state_val": 6000, "CONTRACTOR": "HANDYWORKS UNLIMITED", "LOCATION": "1551 NEBRASKA AVE E\rSaint Paul, MN\r(44.986583, -93.034857)", "Lon": -93.034857, "Lat": 44.986583, "COUNT": 1 }, "geometry": { "type": "Point", "coordinates": [ -93.034857, 44.986583 ] } },
{ "type": "Feature", "properties": { "permit_num": "B 16-011671-ADD", "permit_type": "Building Permit", "per_status": "Inspected", "per_subtype": "Commercial", "work_desc": "Addition", "permit_dt": null, "est_val": 350000, "state_val": 350000, "CONTRACTOR": "WELSH CONSTRUCTION", "LOCATION": "250 THOMPSON ST - St Paul Radiology\rSaint Paul, MN\r(44.944319, -93.10738)", "Lon": -93.107380, "Lat": 44.944319, "COUNT": 1 }, "geometry": { "type": "Point", "coordinates": [ -93.10738, 44.944319 ] } },
{ "type": "Feature", "properties": { "permit_num": "B 16-039541-ADD", "permit_type": "Building Permit", "per_status": "Inspected", "per_subtype": "Single Family Dwelling", "work_desc": "Addition", "permit_dt": null, "est_val": 1800, "state_val": 1800, "CONTRACTOR": "Orion Johnson", "LOCATION": "522 LARPENTEUR AVE E\rSaint Paul, MN\r(44.99189, -93.078398)", "Lon": -93.078398, "Lat": 44.991890, "COUNT": 1 }, "geometry": { "type": "Point", "coordinates": [ -93.078398, 44.99189 ] } },
{ "type": "Feature", "properties": { "permit_num": "B 16-033381-ADD", "permit_type": "Building Permit", "per_status": "Inspected", "per_subtype": "Single Family Dwelling", "work_desc": "Addition", "permit_dt": null, "est_val": 15000, "state_val": 15000, "CONTRACTOR": "FULL CIRCLE CONSTRUCTION INC", "LOCATION": "1792 PINEHURST AVE\rSaint Paul, MN\r(44.918865, -93.175962)", "Lon": -93.175962, "Lat": 44.918865, "COUNT": 1 }, "geometry": { "type": "Point", "coordinates": [ -93.175962, 44.918865 ] } },
{ "type": "Feature", "properties": { "permit_num": "B 16-028089-ADD", "permit_type": "Building Permit", "per_status": "Inspected", "per_subtype": "2-Family\/Duplex", "work_desc": "Addition", "permit_dt": null, "est_val": 3700, "state_val": 3700, "CONTRACTOR": "Scott Harris HARRIS ROOFING INC", "LOCATION": "765 ROSE AVE E\rSaint Paul, MN\r(44.976613, -93.068254)", "Lon": -93.068254, "Lat": 44.976613, "COUNT": 1 }, "geometry": { "type": "Point", "coordinates": [ -93.068254, 44.976613 ] } },
{ "type": "Feature", "properties": { "permit_num": "B 16-026497-ADD", "permit_type": "Building Permit", "per_status": "Active\/Issued", "per_subtype": "Single Family Dwelling", "work_desc": "Addition", "permit_dt": null, "est_val": 2000, "state_val": 2000, "CONTRACTOR": "Joseph Davern", "LOCATION": "1456 ST ALBANS ST N\rSaint Paul, MN\r(44.985002, -93.128755)", "Lon": -93.128755, "Lat": 44.985002, "COUNT": 1 }, "geometry": { "type": "Point", "coordinates": [ -93.128755, 44.985002 ] } },
{ "type": "Feature", "properties": { "permit_num": "B 16-004464-ADD", "permit_type": "Building Permit", "per_status": "Inspected", "per_subtype": "Institutional", "work_desc": "Addition", "permit_dt": null, "est_val": 14000000, "state_val": 14000000, "CONTRACTOR": "STEVEN CURRY KNUTSON CONSTRUCTION SERVICES", "LOCATION": "235 MARSHALL AVE - Outlot - St Paul College\rSaint Paul, MN\r(44.948191, -93.110946)", "Lon": -93.110946, "Lat": 44.948191, "COUNT": 1 }, "geometry": { "type": "Point", "coordinates": [ -93.110946, 44.948191 ] } },
{ "type": "Feature", "properties": { "permit_num": "B 16-025741-ADD", "permit_type": "Building Permit", "per_status": "Inspected", "per_subtype": "Single Family Dwelling", "work_desc": "Addition", "permit_dt": null, "est_val": 75000, "state_val": 75000, "CONTRACTOR": "GG HOME INVESTMENTS LLC", "LOCATION": "896 RAYMOND AVE\rSaint Paul, MN\r(44.967828, -93.19821)", "Lon": -93.198210, "Lat": 44.967828, "COUNT": 1 }, "geometry": { "type": "Point", "coordinates": [ -93.19821, 44.967828 ] } },
{ "type": "Feature", "properties": { "permit_num": "B 16-011355-ADD", "permit_type": "Building Permit", "per_status": "Inspected", "per_subtype": "Single Family Dwelling", "work_desc": "Addition", "permit_dt": null, "est_val": 137800, "state_val": 137800, "CONTRACTOR": "Hamelot Properties Llc", "LOCATION": "2301 BEVERLY ROAD\rSaint Paul, MN\r(44.9556, -93.195058)", "Lon": -93.195058, "Lat": 44.955600, "COUNT": 1 }, "geometry": { "type": "Point", "coordinates": [ -93.195058, 44.9556 ] } },
{ "type": "Feature", "properties": { "permit_num": "B 16-029144-ADD", "permit_type": "Building Permit", "per_status": "Active\/Issued", "per_subtype": "Single Family Dwelling", "work_desc": "Addition", "permit_dt": null, "est_val": 1300, "state_val": 1300, "CONTRACTOR": "Robert J Hagstrom", "LOCATION": "1546 ARUNDEL ST\rSaint Paul, MN\r(44.98784, -93.118523)", "Lon": -93.118523, "Lat": 44.987840, "COUNT": 1 }, "geometry": { "type": "Point", "coordinates": [ -93.118523, 44.98784 ] } },
{ "type": "Feature", "properties": { "permit_num": "B 16-019001-ADD", "permit_type": "Building Permit", "per_status": "Inspected", "per_subtype": "Single Family Dwelling", "work_desc": "Addition", "permit_dt": null, "est_val": 47500, "state_val": 47500, "CONTRACTOR": "J AND D BUILDERS INC", "LOCATION": "1503 ASHLAND AVE\rSaint Paul, MN\r(44.943958, -93.163676)", "Lon": -93.163676, "Lat": 44.943958, "COUNT": 1 }, "geometry": { "type": "Point", "coordinates": [ -93.163676, 44.943958 ] } },
{ "type": "Feature", "properties": { "permit_num": "B 16-017887-ADD", "permit_type": "Building Permit", "per_status": "Inspected", "per_subtype": "Single Family Dwelling", "work_desc": "Addition", "permit_dt": null, "est_val": 135000, "state_val": 135000, "CONTRACTOR": "CRAIG KOUBA SICORA INC", "LOCATION": "1026 GRAND AVE\rSaint Paul, MN\r(44.939992, -93.143452)", "Lon": -93.143452, "Lat": 44.939992, "COUNT": 1 }, "geometry": { "type": "Point", "coordinates": [ -93.143452, 44.939992 ] } },
{ "type": "Feature", "properties": { "permit_num": "B 16-029660-ADD", "permit_type": "Building Permit", "per_status": "Inspected", "per_subtype": "Single Family Dwelling", "work_desc": "Addition", "permit_dt": null, "est_val": 35000, "state_val": 35000, "CONTRACTOR": "BOB WILLIAMSON GREATSTONE LLC", "LOCATION": "1932 FIELD AVE\rSaint Paul, MN\r(44.902549, -93.18177)", "Lon": -93.181770, "Lat": 44.902549, "COUNT": 1 }, "geometry": { "type": "Point", "coordinates": [ -93.18177, 44.902549 ] } },
{ "type": "Feature", "properties": { "permit_num": "B 15-148101-ADD", "permit_type": "Building Permit", "per_status": "Active\/Issued", "per_subtype": "Single Family Dwelling", "work_desc": "Addition", "permit_dt": null, "est_val": 30000, "state_val": 30000, "CONTRACTOR": "GUTIERREZ CONSTRUCTION INC", "LOCATION": "25 ELIZABETH ST E\rSaint Paul, MN\r(44.927143, -93.084122)", "Lon": -93.084122, "Lat": 44.927143, "COUNT": 1 }, "geometry": { "type": "Point", "coordinates": [ -93.084122, 44.927143 ] } },
{ "type": "Feature", "properties": { "permit_num": "B 16-006398-ADD", "permit_type": "Building Permit", "per_status": "Inspected", "per_subtype": "Single Family Dwelling", "work_desc": "Addition", "permit_dt": null, "est_val": 225000, "state_val": 211448, "CONTRACTOR": "CNC CONSTRUCTION LLC", "LOCATION": "1443 JEFFERSON AVE\rSaint Paul, MN\r(44.930618, -93.161124)", "Lon": -93.161124, "Lat": 44.930618, "COUNT": 1 }, "geometry": { "type": "Point", "coordinates": [ -93.161124, 44.930618 ] } },
{ "type": "Feature", "properties": { "permit_num": "B 15-162786-ADD", "permit_type": "Building Permit", "per_status": "Inspected", "per_subtype": "Commercial", "work_desc": "Addition", "permit_dt": null, "est_val": 1600000, "state_val": 1600000, "CONTRACTOR": "EFH CO", "LOCATION": "1261 GRAND AVE - KOWALSKI'S GRAND MARKET\rSaint Paul, MN\r(44.940022, -93.15361)", "Lon": -93.153610, "Lat": 44.940022, "COUNT": 1 }, "geometry": { "type": "Point", "coordinates": [ -93.15361, 44.940022 ] } },
{ "type": "Feature", "properties": { "permit_num": "B 16-003613-ADD", "permit_type": "Building Permit", "per_status": "Inspected", "per_subtype": "Single Family Dwelling", "work_desc": "Addition", "permit_dt": null, "est_val": 145000, "state_val": 145000, "CONTRACTOR": "JCJ CONSTRUCTION INC", "LOCATION": "1427 OSCEOLA AVE\rSaint Paul, MN\r(44.936076, -93.160573)", "Lon": -93.160573, "Lat": 44.936076, "COUNT": 1 }, "geometry": { "type": "Point", "coordinates": [ -93.160573, 44.936076 ] } },
{ "type": "Feature", "properties": { "permit_num": "B 16-005109-ADD", "permit_type": "Building Permit", "per_status": "Inspected", "per_subtype": "Single Family Dwelling", "work_desc": "Addition", "permit_dt": null, "est_val": 185000, "state_val": 185000, "CONTRACTOR": "HEATHER THRAM", "LOCATION": "1954 ROME AVE\rSaint Paul, MN\r(44.913427, -93.182928)", "Lon": -93.182928, "Lat": 44.913427, "COUNT": 1 }, "geometry": { "type": "Point", "coordinates": [ -93.182928, 44.913427 ] } },
{ "type": "Feature", "properties": { "permit_num": "B 16-003964-ADD", "permit_type": "Building Permit", "per_status": "Inspected", "per_subtype": "Single Family Dwelling", "work_desc": "Addition", "permit_dt": null, "est_val": 95000, "state_val": 95000, "CONTRACTOR": "TRANSFORM DESIGN SOLUTIONS LLC", "LOCATION": "1367 BAYARD AVE\rSaint Paul, MN\r(44.922446, -93.158044)", "Lon": -93.158044, "Lat": 44.922446, "COUNT": 1 }, "geometry": { "type": "Point", "coordinates": [ -93.158044, 44.922446 ] } },
{ "type": "Feature", "properties": { "permit_num": "B 16-017693-ADD", "permit_type": "Building Permit", "per_status": "Inspected", "per_subtype": "Single Family Dwelling", "work_desc": "Addition", "permit_dt": null, "est_val": 70000, "state_val": 70000, "CONTRACTOR": "David A Amdur", "LOCATION": "1926 LINCOLN AVE\rSaint Paul, MN\r(44.939019, -93.181654)", "Lon": -93.181654, "Lat": 44.939019, "COUNT": 1 }, "geometry": { "type": "Point", "coordinates": [ -93.181654, 44.939019 ] } },
{ "type": "Feature", "properties": { "permit_num": "B 16-015748-ADD", "permit_type": "Building Permit", "per_status": "Inspected", "per_subtype": "Single Family Dwelling", "work_desc": "Addition", "permit_dt": null, "est_val": 30000, "state_val": 30000, "CONTRACTOR": "Elmer G Jesok", "LOCATION": "344 PAGE ST E\rSaint Paul, MN\r(44.924839, -93.070843)", "Lon": -93.070843, "Lat": 44.924839, "COUNT": 1 }, "geometry": { "type": "Point", "coordinates": [ -93.070843, 44.924839 ] } },
{ "type": "Feature", "properties": { "permit_num": "B 16-009217-ADD", "permit_type": "Building Permit", "per_status": "Inspected", "per_subtype": "Single Family Dwelling", "work_desc": "Addition", "permit_dt": null, "est_val": 409580, "state_val": 409580, "CONTRACTOR": "QUARTERSAWN", "LOCATION": "2208 GOODRICH AVE\rSaint Paul, MN\r(44.937886, -93.193574)", "Lon": -93.193574, "Lat": 44.937886, "COUNT": 1 }, "geometry": { "type": "Point", "coordinates": [ -93.193574, 44.937886 ] } },
{ "type": "Feature", "properties": { "permit_num": "B 16-014400-ADD", "permit_type": "Building Permit", "per_status": "Inspected", "per_subtype": "Single Family Dwelling", "work_desc": "Addition", "permit_dt": null, "est_val": 430165, "state_val": 430165, "CONTRACTOR": "WOODSTONE RENOVATION LLC", "LOCATION": "780 GOODRICH AVE\rSaint Paul, MN\r(44.937796, -93.133044)", "Lon": -93.133044, "Lat": 44.937796, "COUNT": 1 }, "geometry": { "type": "Point", "coordinates": [ -93.133044, 44.937796 ] } },
{ "type": "Feature", "properties": { "permit_num": "B 16-003960-ADD", "permit_type": "Building Permit", "per_status": "Inspected", "per_subtype": "Single Family Dwelling", "work_desc": "Addition", "permit_dt": null, "est_val": 90000, "state_val": 90000, "CONTRACTOR": "TRANSFORM DESIGN SOLUTIONS LLC", "LOCATION": "1361 BAYARD AVE\rSaint Paul, MN\r(44.922442, -93.157853)", "Lon": -93.157853, "Lat": 44.922442, "COUNT": 1 }, "geometry": { "type": "Point", "coordinates": [ -93.157853, 44.922442 ] } },
{ "type": "Feature", "properties": { "permit_num": "B 15-187566-ADD", "permit_type": "Building Permit", "per_status": "Inspected", "per_subtype": "Single Family Dwelling", "work_desc": "Addition", "permit_dt": null, "est_val": 30000, "state_val": 96250, "CONTRACTOR": "Doug D Olzenak", "LOCATION": "1604 NILES AVE\rSaint Paul, MN\r(44.925195, -93.168137)", "Lon": -93.168137, "Lat": 44.925195, "COUNT": 1 }, "geometry": { "type": "Point", "coordinates": [ -93.168137, 44.925195 ] } },
{ "type": "Feature", "properties": { "permit_num": "B 16-001918-ADD", "permit_type": "Building Permit", "per_status": "Inspected", "per_subtype": "Single Family Dwelling", "work_desc": "Addition", "permit_dt": null, "est_val": 4300, "state_val": 4300, "CONTRACTOR": "ACCESSIBLE HOMES", "LOCATION": "1618 HOYT AVE E\rSaint Paul, MN\r(44.988348, -93.032103)", "Lon": -93.032103, "Lat": 44.988348, "COUNT": 1 }, "geometry": { "type": "Point", "coordinates": [ -93.032103, 44.988348 ] } },
{ "type": "Feature", "properties": { "permit_num": "B 15-181448-ADD", "permit_type": "Building Permit", "per_status": "Inspected", "per_subtype": "Single Family Dwelling", "work_desc": "Addition", "permit_dt": null, "est_val": 75000, "state_val": 75000, "CONTRACTOR": "SCOTT PETERSON ENTERPRISES INC", "LOCATION": "1479 HYTHE ST\rSaint Paul, MN\r(44.985764, -93.190146)", "Lon": -93.190146, "Lat": 44.985764, "COUNT": 1 }, "geometry": { "type": "Point", "coordinates": [ -93.190146, 44.985764 ] } },
{ "type": "Feature", "properties": { "permit_num": "B 15-169198-ADD", "permit_type": "Building Permit", "per_status": "Inspected", "per_subtype": "Single Family Dwelling", "work_desc": "Addition", "permit_dt": null, "est_val": 500000, "state_val": 500000, "CONTRACTOR": "Christopher Koss 1ST CHOICE HOME IMPROVEMENTS LLC", "LOCATION": "1530 EDGCUMBE ROAD\rSaint Paul, MN\r(44.918048, -93.151234)", "Lon": -93.151234, "Lat": 44.918048, "COUNT": 1 }, "geometry": { "type": "Point", "coordinates": [ -93.151234, 44.918048 ] } },
{ "type": "Feature", "properties": { "permit_num": "B 15-123306-ADD", "permit_type": "Building Permit", "per_status": "Inspected", "per_subtype": "Single Family Dwelling", "work_desc": "Addition", "permit_dt": null, "est_val": 4410, "state_val": 4410, "CONTRACTOR": "BRAD NILLES NILLES BUILDERS INC", "LOCATION": "889 FAIRMOUNT AVE\rSaint Paul, MN\r(44.936756, -93.137602)", "Lon": -93.137602, "Lat": 44.936756, "COUNT": 1 }, "geometry": { "type": "Point", "coordinates": [ -93.137602, 44.936756 ] } },
{ "type": "Feature", "properties": { "permit_num": "B 15-156055-ADD", "permit_type": "Building Permit", "per_status": "Inspected", "per_subtype": "Accessory Structure", "work_desc": "Addition", "permit_dt": null, "est_val": 2500, "state_val": 2500, "CONTRACTOR": "Ruperto Martinez Onofre", "LOCATION": "1112 KENNARD ST\rSaint Paul, MN\r(44.974865, -93.030368)", "Lon": -93.030368, "Lat": 44.974865, "COUNT": 1 }, "geometry": { "type": "Point", "coordinates": [ -93.030368, 44.974865 ] } },
{ "type": "Feature", "properties": { "permit_num": "B 15-167389-ADD", "permit_type": "Building Permit", "per_status": "Inspected", "per_subtype": "Single Family Dwelling", "work_desc": "Addition", "permit_dt": null, "est_val": 24500, "state_val": 24500, "CONTRACTOR": "J AND D BUILDERS INC", "LOCATION": "1634 BAYARD AVE\rSaint Paul, MN\r(44.922443, -93.169388)", "Lon": -93.169388, "Lat": 44.922443, "COUNT": 1 }, "geometry": { "type": "Point", "coordinates": [ -93.169388, 44.922443 ] } },
{ "type": "Feature", "properties": { "permit_num": "B 15-187133-ADD", "permit_type": "Building Permit", "per_status": "Inspected", "per_subtype": "Single Family Dwelling", "work_desc": "Addition", "permit_dt": null, "est_val": 1300, "state_val": 1300, "CONTRACTOR": "PATRICK C LENTSCH", "LOCATION": "1337 FURNESS PKWY\rSaint Paul, MN\r(44.98154, -93.018021)", "Lon": -93.018021, "Lat": 44.981540, "COUNT": 1 }, "geometry": { "type": "Point", "coordinates": [ -93.018021, 44.98154 ] } },
{ "type": "Feature", "properties": { "permit_num": "B 15-172470-ADD", "permit_type": "Building Permit", "per_status": "Inspected", "per_subtype": "Accessory Structure", "work_desc": "Addition", "permit_dt": null, "est_val": 35000, "state_val": 35000, "CONTRACTOR": "MARK WILLIS CONSTRUCTION ASSOCIATES LLC", "LOCATION": "1684 DAYTON AVE\rSaint Paul, MN\r(44.947393, -93.171536)", "Lon": -93.171536, "Lat": 44.947393, "COUNT": 1 }, "geometry": { "type": "Point", "coordinates": [ -93.171536, 44.947393 ] } },
{ "type": "Feature", "properties": { "permit_num": "B 15-172701-ADD", "permit_type": "Building Permit", "per_status": "Inspected", "per_subtype": "Single Family Dwelling", "work_desc": "Addition", "permit_dt": null, "est_val": 800, "state_val": 1600, "CONTRACTOR": "Church Of The Blessed Sacrament Of St Paul", "LOCATION": "2136 CASE AVE\rSaint Paul, MN\r(44.970248, -93.010181)", "Lon": -93.010181, "Lat": 44.970248, "COUNT": 1 }, "geometry": { "type": "Point", "coordinates": [ -93.010181, 44.970248 ] } },
{ "type": "Feature", "properties": { "permit_num": "B 15-023621-ADD", "permit_type": "Building Permit", "per_status": "Inspected", "per_subtype": "Single Family Dwelling", "work_desc": "Addition", "permit_dt": null, "est_val": 40000, "state_val": 40000, "CONTRACTOR": "Brad D Engelmann", "LOCATION": "895 RAYMOND AVE\rSaint Paul, MN\r(44.968134, -93.198345)", "Lon": -93.198345, "Lat": 44.968134, "COUNT": 1 }, "geometry": { "type": "Point", "coordinates": [ -93.198345, 44.968134 ] } },
{ "type": "Feature", "properties": { "permit_num": "B 15-157680-ADD", "permit_type": "Building Permit", "per_status": "Inspected", "per_subtype": "Single Family Dwelling", "work_desc": "Addition", "permit_dt": null, "est_val": 458235, "state_val": 458235, "CONTRACTOR": "M & M INSULATION", "LOCATION": "1373 SUMMIT AVE\rSaint Paul, MN\r(44.941593, -93.158175)", "Lon": -93.158175, "Lat": 44.941593, "COUNT": 1 }, "geometry": { "type": "Point", "coordinates": [ -93.158175, 44.941593 ] } },